[{"name":"Espresso Minute","address":"334 Mass Ave","city":"Boston","state":"MA","postal_code":"02115","stars":4.5,"review_count":7,"is_open":0,"attributes":{"NoiseLevel":"'quiet'","GoodForKids":"True","RestaurantsTakeOut":"True","WheelchairAccessible":"True","OutdoorSeating":"True","BusinessAcceptsCreditCards":"True","Caters":"True","BikeParking":"True","RestaurantsPriceRange2":"1","RestaurantsAttire":"'casual'","Alcohol":"'none'","RestaurantsGoodForGroups":"True"},"categories":["Creperies","Restaurants","Food","Coffee&Tea","Breakfast&Brunch"],"hours":{"Tuesday":"8:0-20:0","Wednesday":"8:0-20:0","Thursday":"8:0-20:0","Friday":"8:0-21:0","Saturday":"8:0-21:0","Sunday":"9:0-16:0"}},{"name":"Lilly's Gourmet Pasta Express","address":"1528 Tremont St","city":"Boston","state":"MA","postal_code":"02120","stars":4.0,"review_count":163,"is_open":1,"attributes":{"WiFi":"'no'","NoiseLevel":"u'average'","Caters":"True","RestaurantsAttire":"u'casual'","RestaurantsPriceRange2":"2","BusinessAcceptsCreditCards":"True","BikeParking":"True","RestaurantsDelivery":"True","GoodForKids":"True","HasTV":"True","RestaurantsTakeOut":"True"},"categories":["Restaurants","Italian"],"hours":{"Monday":"11:0-22:0","Tuesday":"11:0-22:0","Wednesday":"11:0-22:0","Thursday":"11:0-22:0","Friday":"11:0-0:0","Saturday":"11:0-0:0","Sunday":"12:0-22:0"}},{"name":"Amelia's Taqueria","address":"309 Huntington Ave","city":"Boston","state":"MA","postal_code":"02115","stars":3.5,"review_count":160,"is_open":1,"attributes":{"GoodForKids":"True","BikeParking":"True","Caters":"True","RestaurantsDelivery":"True","RestaurantsPriceRange2":"1","WiFi":"'no'","RestaurantsTakeOut":"True","NoiseLevel":"u'loud'","RestaurantsAttire":"'casual'","BusinessAcceptsCreditCards":"True","HasTV":"True"},"categories":["Restaurants","Mexican"],"hours":{"Monday":"12:0-20:0","Tuesday":"12:0-20:0","Wednesday":"12:0-20:0","Thursday":"12:0-20:0","Friday":"12:0-20:0","Saturday":"12:0-20:0","Sunday":"12:0-20:0"}},{"name":"Il Mondo II","address":"182 Massachusetts Ave","city":"Boston","state":"MA","postal_code":"02115","stars":3.0,"review_count":77,"is_open":0,"attributes":{"BusinessAcceptsCreditCards":"True","Caters":"True","RestaurantsGoodForGroups":"True","NoiseLevel":"u'average'","RestaurantsAttire":"u'casual'","BikeParking":"True","HasTV":"True","RestaurantsDelivery":"True","RestaurantsTakeOut":"True","RestaurantsPriceRange2":"1","WiFi":"u'free'","GoodForKids":"True"},"categories":["Pizza","Restaurants"],"hours":{"Monday":"10:30-1:0","Tuesday":"10:30-1:0","Wednesday":"10:30-1:0","Thursday":"10:30-1:0","Friday":"10:30-1:0","Saturday":"10:30-1:0","Sunday":"10:30-1:0"}},{"name":"Boloco Northeastern","address":"Marino Center Northeastern University, 359 Huntington Ave","city":"Boston","state":"MA","postal_code":"02115","stars":3.5,"review_count":125,"is_open":0,"attributes":{"RestaurantsPriceRange2":"1","RestaurantsAttire":"'casual'","RestaurantsGoodForGroups":"True","WiFi":"u'free'","NoiseLevel":"u'average'","OutdoorSeating":"True","BusinessAcceptsCreditCards":"True","GoodForKids":"True","Caters":"True","RestaurantsTakeOut":"True","Alcohol":"'none'","BikeParking":"True"},"categories":["Food","Mexican","Restaurants","JuiceBars&Smoothies","FastFood"],"hours":{"Monday":"10:0-23:0","Tuesday":"10:0-23:0","Wednesday":"10:0-23:0","Thursday":"10:0-23:0","Friday":"10:0-23:0","Saturday":"10:0-23:0","Sunday":"10:0-23:0"}},{"name":"Boba Me","address":"1520 Tremont St","city":"Boston","state":"MA","postal_code":"02120","stars":4.5,"review_count":50,"is_open":1,"attributes":{"WiFi":"u'free'","BusinessAcceptsCreditCards":"True","RestaurantsTakeOut":"True","BikeParking":"True","WheelchairAccessible":"True","RestaurantsDelivery":"True","Caters":"True"},"categories":["Vietnamese","Restaurants","JuiceBars&Smoothies","Food","BubbleTea","IceCream&FrozenYogurt"],"hours":{"Tuesday":"11:0-22:0","Wednesday":"11:0-22:0","Thursday":"11:0-22:0","Friday":"11:0-22:0","Saturday":"11:0-22:0","Sunday":"11:0-22:0"}},{"name":"Uno Pizzeria & Grill","address":"280 Huntington Ave.","city":"Boston","state":"MA","postal_code":"02115","stars":2.5,"review_count":150,"is_open":0,"attributes":{"GoodForKids":"True","OutdoorSeating":"True","BYOBCorkage":"'no'","RestaurantsDelivery":"True","HasTV":"True","Alcohol":"'full_bar'","RestaurantsTakeOut":"True","RestaurantsGoodForGroups":"True","RestaurantsReservations":"True","RestaurantsPriceRange2":"2","BusinessAcceptsCreditCards":"True","RestaurantsAttire":"'casual'","BikeParking":"True","WiFi":"'free'","NoiseLevel":"u'average'","HappyHour":"True"},"categories":["Gluten-Free","Pizza","American(Traditional)","Restaurants"],"hours":{"Monday":"11:0-1:0","Tuesday":"11:0-1:0","Wednesday":"11:0-1:0","Thursday":"11:0-2:0","Friday":"11:0-2:0","Saturday":"11:0-2:0","Sunday":"11:30-0:30"}},{"name":"Subway","address":"1578 Tremont St, Unit 1","city":"Boston","state":"MA","postal_code":"02120","stars":3.0,"review_count":9,"is_open":1,"attributes":{"RestaurantsTakeOut":"True","RestaurantsAttire":"u'casual'","BusinessAcceptsCreditCards":"True","NoiseLevel":"u'quiet'","WiFi":"u'no'","Caters":"True","RestaurantsPriceRange2":"1","HasTV":"True"},"categories":["Sandwiches","FastFood","Restaurants"],"hours":{"Monday":"10:0-19:0","Tuesday":"10:0-19:0","Wednesday":"10:0-19:0","Thursday":"10:0-19:0","Friday":"10:0-19:0"}},{"name":"McDonald's","address":"340 Longwood Ave","city":"Boston","state":"MA","postal_code":"02115","stars":3.0,"review_count":12,"is_open":1,"attributes":{"RestaurantsTakeOut":"True","NoiseLevel":"u'very_loud'","OutdoorSeating":"True","RestaurantsPriceRange2":"1","GoodForKids":"True","RestaurantsAttire":"u'casual'","RestaurantsGoodForGroups":"True","BikeParking":"True","BusinessAcceptsCreditCards":"True","RestaurantsDelivery":"True","HasTV":"True","DriveThru":"True","WiFi":"'free'"},"categories":["FastFood","Restaurants","Food","Coffee&Tea","Burgers"],"hours":{"Monday":"6:30-22:0","Tuesday":"6:30-22:0","Wednesday":"6:30-22:0","Thursday":"6:30-22:0","Friday":"6:30-22:0","Saturday":"7:0-20:0","Sunday":"7:30-20:0"}},{"name":"JP Licks","address":"1618 Tremont St","city":"Mission Hill","state":"MA","postal_code":"02120","stars":3.5,"review_count":113,"is_open":1,"attributes":{"RestaurantsAttire":"'casual'","BusinessAcceptsCreditCards":"True","Alcohol":"'none'","WiFi":"u'free'","RestaurantsGoodForGroups":"True","BikeParking":"True","Caters":"True","NoiseLevel":"u'average'","RestaurantsTakeOut":"True","RestaurantsPriceRange2":"1","GoodForKids":"True","OutdoorSeating":"True","HappyHour":"True","RestaurantsDelivery":"True"},"categories":["IceCream&FrozenYogurt","Food","Kosher","Coffee&Tea","Restaurants"],"hours":{"Monday":"6:30-23:0","Tuesday":"6:30-23:0","Wednesday":"6:30-23:0","Thursday":"6:30-23:0","Friday":"6:30-23:0","Saturday":"9:0-23:0","Sunday":"9:0-23:0"}},{"name":"Dillon's","address":"955 Boylston St","city":"Boston","state":"MA","postal_code":"02115","stars":3.0,"review_count":465,"is_open":1,"attributes":{"RestaurantsGoodForGroups":"True","BYOBCorkage":"'yes_corkage'","OutdoorSeating":"True","RestaurantsTakeOut":"True","WiFi":"u'free'","Alcohol":"'full_bar'","Corkage":"True","BusinessAcceptsCreditCards":"True","RestaurantsDelivery":"True","RestaurantsAttire":"'casual'","RestaurantsPriceRange2":"2","RestaurantsReservations":"True","NoiseLevel":"u'loud'","HasTV":"True"},"categories":["Nightlife","American(Traditional)","Restaurants","Bars"],"hours":{"Monday":"11:0-2:0","Tuesday":"11:0-2:0","Wednesday":"11:0-2:0","Thursday":"11:0-2:0","Friday":"11:0-2:0","Saturday":"10:0-2:0","Sunday":"10:0-2:0"}},{"name":"Milkweed","address":"1508 Tremont St","city":"Boston","state":"MA","postal_code":"02120","stars":4.5,"review_count":654,"is_open":1,"attributes":{"RestaurantsReservations":"True","RestaurantsAttire":"'casual'","RestaurantsGoodForGroups":"True","RestaurantsTableService":"True","GoodForKids":"True","NoiseLevel":"u'average'","RestaurantsPriceRange2":"2","WiFi":"u'free'","Smoking":"u'no'","Alcohol":"'full_bar'","BusinessAcceptsCreditCards":"True","Caters":"True","WheelchairAccessible":"True"},"categories":["American(New)","Nightlife","Restaurants","Breakfast&Brunch","CocktailBars","Bars"],"hours":{"Tuesday":"7:0-17:0","Wednesday":"7:0-22:0","Thursday":"7:0-22:0","Friday":"7:0-22:0","Saturday":"8:0-22:0","Sunday":"8:0-22:0"}},{"name":"New American Cafe","address":"465 Huntington Ave","city":"Boston","state":"MA","postal_code":"02120","stars":2.5,"review_count":62,"is_open":1,"attributes":{"NoiseLevel":"u'average'","RestaurantsPriceRange2":"2","RestaurantsAttire":"u'casual'","Alcohol":"u'beer_and_wine'","BusinessAcceptsCreditCards":"True","WiFi":"u'no'","BikeParking":"True","RestaurantsTableService":"True","HasTV":"True"},"categories":["Restaurants","American(New)"],"hours":{"Monday":"10:0-16:0","Tuesday":"10:0-16:0","Wednesday":"10:0-20:0","Thursday":"10:0-20:0","Friday":"10:0-20:0","Saturday":"10:0-16:0","Sunday":"10:0-16:0"}},{"name":"Ginger Exchange Symphony","address":"250 Huntington Ave","city":"Boston","state":"MA","postal_code":"02115","stars":3.5,"review_count":162,"is_open":1,"attributes":{"NoiseLevel":"u'average'","Alcohol":"u'full_bar'","WiFi":"u'no'","BikeParking":"True","RestaurantsReservations":"True","RestaurantsAttire":"u'casual'","RestaurantsDelivery":"True","RestaurantsTakeOut":"True","GoodForKids":"True","Caters":"True","RestaurantsPriceRange2":"2","HasTV":"True","HappyHour":"True","RestaurantsGoodForGroups":"True","BusinessAcceptsCreditCards":"True"},"categories":["AsianFusion","Japanese","Restaurants","SushiBars"],"hours":{"Monday":"11:30-23:0","Tuesday":"11:30-23:0","Wednesday":"11:30-23:0","Thursday":"11:30-0:0","Friday":"11:30-0:0","Saturday":"11:30-0:0","Sunday":"12:0-23:0"}},{"name":"Symphony 8","address":"8 Westland Ave","city":"Boston","state":"MA","postal_code":"02115","stars":2.5,"review_count":101,"is_open":0,"attributes":{"RestaurantsReservations":"True","RestaurantsPriceRange2":"2","Alcohol":"u'full_bar'","RestaurantsGoodForGroups":"True","RestaurantsAttire":"u'casual'","NoiseLevel":"u'loud'","RestaurantsTakeOut":"True","BusinessAcceptsCreditCards":"True","HasTV":"True"},"categories":["Nightlife","Restaurants","American(New)","Bars","Irish"],"hours":{"Monday":"11:0-2:0","Tuesday":"11:0-2:0","Wednesday":"11:0-2:0","Thursday":"11:0-2:0","Friday":"11:0-2:0","Saturday":"11:0-2:0","Sunday":"11:0-2:0"}},{"name":"Cafe Golden Horn","address":"334 Massachusetts Ave","city":"Boston","state":"MA","postal_code":"02115","stars":3.5,"review_count":15,"is_open":0,"attributes":{"RestaurantsPriceRange2":"1","RestaurantsGoodForGroups":"True","BusinessAcceptsCreditCards":"True","RestaurantsTakeOut":"True","GoodForKids":"True","BYOBCorkage":"'no'","Alcohol":"'none'","RestaurantsAttire":"'casual'","OutdoorSeating":"True"},"categories":["Sandwiches","Restaurants"],"hours":{"Monday":"7:0-23:0","Tuesday":"7:0-23:0","Wednesday":"7:0-23:0","Thursday":"7:0-23:0","Friday":"7:0-23:0","Saturday":"8:0-21:0","Sunday":"8:0-21:0"}},{"name":"Dumpling Palace","address":"179 Massachusetts Ave","city":"Boston","state":"MA","postal_code":"02115","stars":3.0,"review_count":442,"is_open":1,"attributes":{"RestaurantsGoodForGroups":"True","GoodForKids":"True","RestaurantsPriceRange2":"2","BikeParking":"True","HasTV":"True","WiFi":"'no'","WheelchairAccessible":"True","RestaurantsReservations":"True","BusinessAcceptsCreditCards":"True","RestaurantsTableService":"True","RestaurantsAttire":"'casual'","RestaurantsTakeOut":"True","NoiseLevel":"u'average'","RestaurantsDelivery":"True"},"categories":["Taiwanese","Restaurants","Chinese"],"hours":{"Monday":"11:0-3:0","Tuesday":"11:0-3:0","Wednesday":"11:0-3:0","Thursday":"11:0-3:0","Friday":"11:0-3:0","Saturday":"11:0-3:0","Sunday":"11:0-3:0"}},{"name":"Tremont House Of Pizza","address":"1590 Tremont St","city":"Boston","state":"MA","postal_code":"02120","stars":3.0,"review_count":46,"is_open":1,"attributes":{"RestaurantsDelivery":"True","RestaurantsPriceRange2":"1","RestaurantsTakeOut":"True","BusinessAcceptsCreditCards":"True","RestaurantsGoodForGroups":"True","RestaurantsAttire":"u'casual'","GoodForKids":"True","WiFi":"'no'","HasTV":"True","BikeParking":"True","NoiseLevel":"'average'"},"categories":["Salad","Restaurants","Seafood","Pizza","Italian"],"hours":{"Monday":"10:0-23:0","Tuesday":"10:0-23:0","Wednesday":"10:0-23:0","Thursday":"10:0-3:0","Friday":"10:0-3:0","Saturday":"10:0-3:0","Sunday":"11:0-22:0"}},{"name":"QDOBA Mexican Eats","address":"393 Huntington Ave, Ste 101","city":"Boston","state":"MA","postal_code":"02115","stars":3.0,"review_count":138,"is_open":1,"attributes":{"RestaurantsPriceRange2":"1","BYOBCorkage":"'no'","RestaurantsDelivery":"True","RestaurantsAttire":"'casual'","BusinessAcceptsCreditCards":"True","RestaurantsGoodForGroups":"True","BikeParking":"True","NoiseLevel":"u'average'","GoodForKids":"True","WiFi":"'free'","Caters":"True","Alcohol":"u'beer_and_wine'","HasTV":"True","RestaurantsTakeOut":"True"},"categories":["Caterers","Mexican","Restaurants","FastFood","EventPlanning&Services"],"hours":{"Tuesday":"10:30-20:0","Wednesday":"10:30-22:0","Thursday":"10:30-20:0","Friday":"10:30-20:0","Saturday":"10:30-22:0","Sunday":"10:30-22:0"}},{"name":"Cactus Club","address":"939 Boylston St","city":"Boston","state":"MA","postal_code":"02115","stars":3.0,"review_count":348,"is_open":0,"attributes":{"RestaurantsTakeOut":"True","RestaurantsDelivery":"True","RestaurantsAttire":"'casual'","Alcohol":"'full_bar'","RestaurantsPriceRange2":"2","RestaurantsReservations":"True","BusinessAcceptsCreditCards":"True","BYOBCorkage":"'no'","RestaurantsGoodForGroups":"True","BikeParking":"True","OutdoorSeating":"True","WiFi":"u'no'","NoiseLevel":"u'average'","HasTV":"True"},"categories":["Nightlife","Restaurants","Mexican","Bars"],"hours":{"Monday":"16:0-22:0","Tuesday":"16:0-22:0","Wednesday":"16:0-22:0","Thursday":"16:0-23:0","Friday":"11:30-0:0","Saturday":"11:0-0:0","Sunday":"11:0-22:0"}},{"name":"Our House East","address":"52 Gainsborough St","city":"Boston","state":"MA","postal_code":"02115","stars":2.5,"review_count":82,"is_open":0,"attributes":{"NoiseLevel":"u'loud'","WiFi":"u'free'","RestaurantsTakeOut":"True","RestaurantsGoodForGroups":"True","RestaurantsPriceRange2":"1","RestaurantsAttire":"'casual'","Alcohol":"u'full_bar'","HasTV":"True","BusinessAcceptsCreditCards":"True","BikeParking":"True"},"categories":["Bars","Pubs","American(Traditional)","Restaurants","Nightlife"],"hours":{"Monday":"17:0-2:0","Tuesday":"17:0-2:0","Wednesday":"17:0-2:0","Thursday":"11:30-2:0","Friday":"11:30-2:0","Saturday":"11:30-2:0","Sunday":"11:30-2:0"}},{"name":"Cappy\u00e2\u20ac\u2122s Pizza & Subs","address":"82 Westland Ave","city":"Boston","state":"MA","postal_code":"02115","stars":2.5,"review_count":137,"is_open":1,"attributes":{"RestaurantsPriceRange2":"1","RestaurantsDelivery":"True","Caters":"True","BusinessAcceptsCreditCards":"True","NoiseLevel":"u'average'","RestaurantsAttire":"u'casual'","BikeParking":"True","WiFi":"u'no'","HasTV":"True","RestaurantsGoodForGroups":"True","GoodForKids":"True","RestaurantsTakeOut":"True"},"categories":["Restaurants","Greek","Caterers","Mediterranean","Seafood","Pizza","Sandwiches","EventPlanning&Services","Breakfast&Brunch","Italian"],"hours":{"Monday":"6:30-2:0","Tuesday":"6:30-2:0","Wednesday":"6:30-2:0","Thursday":"6:30-2:0","Friday":"6:30-2:0","Saturday":"6:30-2:0","Sunday":"6:30-2:0"}},{"name":"Select Oyster Bar","address":"50 Gloucester St","city":"Boston","state":"MA","postal_code":"02115","stars":4.0,"review_count":367,"is_open":1,"attributes":{"RestaurantsAttire":"u'casual'","RestaurantsTableService":"True","BikeParking":"True","RestaurantsPriceRange2":"3","Smoking":"u'no'","WiFi":"u'no'","NoiseLevel":"u'average'","RestaurantsReservations":"True","Alcohol":"u'full_bar'","BusinessAcceptsCreditCards":"True","OutdoorSeating":"True","WheelchairAccessible":"True","RestaurantsDelivery":"True","RestaurantsGoodForGroups":"True"},"categories":["Seafood","WineBars","Nightlife","American(New)","Bars","Restaurants"],"hours":{"Tuesday":"16:0-20:0","Wednesday":"16:0-20:0","Thursday":"16:0-20:0","Friday":"16:0-20:0","Saturday":"16:0-20:0"}},{"name":"Grand Tour","address":"314 Newbury St","city":"Boston","state":"MA","postal_code":"02115","stars":4.0,"review_count":25,"is_open":1,"attributes":{"RestaurantsTakeOut":"True","WiFi":"u'no'","Alcohol":"u'beer_and_wine'","OutdoorSeating":"True","RestaurantsReservations":"True","RestaurantsDelivery":"True","RestaurantsTableService":"True","BikeParking":"True","BusinessAcceptsCreditCards":"True"},"categories":["American(New)","Restaurants","Italian","French"],"hours":{"Monday":"11:30-21:30","Tuesday":"11:30-21:30","Wednesday":"11:30-21:30","Thursday":"11:30-21:30","Friday":"11:30-22:30","Saturday":"11:30-22:30","Sunday":"11:30-21:0"}},{"name":"Mumbai Spice","address":"251 Massachusetts Ave","city":"Boston","state":"MA","postal_code":"02115","stars":3.0,"review_count":185,"is_open":1,"attributes":{"RestaurantsReservations":"True","NoiseLevel":"u'average'","RestaurantsTableService":"True","RestaurantsGoodForGroups":"True","BusinessAcceptsCreditCards":"True","HasTV":"True","GoodForKids":"True","WheelchairAccessible":"True","WiFi":"'no'","Caters":"True","Alcohol":"u'full_bar'","RestaurantsTakeOut":"True","RestaurantsAttire":"'casual'","RestaurantsPriceRange2":"2","OutdoorSeating":"True","RestaurantsDelivery":"True"},"categories":["Indian","Chinese","Food","Vegetarian","Restaurants","Seafood","Halal"],"hours":{"Monday":"17:0-22:0","Tuesday":"17:0-22:0","Wednesday":"17:0-22:0","Thursday":"17:0-22:0","Friday":"17:0-22:30","Saturday":"12:0-22:30","Sunday":"12:0-22:0"}},{"name":"Montecristo Mexican Grill","address":"748 Huntington Ave","city":"Boston","state":"MA","postal_code":"02115","stars":2.5,"review_count":309,"is_open":1,"attributes":{"RestaurantsAttire":"u'casual'","RestaurantsDelivery":"True","NoiseLevel":"u'average'","RestaurantsTakeOut":"True","RestaurantsReservations":"True","HasTV":"True","Caters":"True","BikeParking":"True","RestaurantsGoodForGroups":"True","RestaurantsPriceRange2":"1","WiFi":"u'free'","Alcohol":"u'beer_and_wine'","BusinessAcceptsCreditCards":"True","GoodForKids":"True"},"categories":["Mexican","Restaurants"],"hours":{"Monday":"8:0-0:0","Tuesday":"8:0-0:0","Wednesday":"8:0-0:0","Thursday":"8:0-0:0","Friday":"8:0-0:0","Saturday":"8:0-0:0","Sunday":"8:0-23:30"}},{"name":"Rice Bowl","address":"6 Hemenway St","city":"Boston","state":"MA","postal_code":"02115","stars":3.0,"review_count":128,"is_open":0,"attributes":{"RestaurantsAttire":"u'casual'","BikeParking":"True","NoiseLevel":"u'average'","WiFi":"u'no'","RestaurantsTakeOut":"True","GoodForKids":"True","RestaurantsDelivery":"True","RestaurantsGoodForGroups":"True","RestaurantsPriceRange2":"1","BusinessAcceptsCreditCards":"True","Caters":"True"},"categories":["Restaurants","Japanese","Chinese"],"hours":{"Monday":"11:0-0:0","Tuesday":"11:0-0:0","Wednesday":"11:0-0:0","Thursday":"11:0-0:0","Friday":"11:0-0:0","Saturday":"11:0-0:0","Sunday":"11:0-0:0"}},{"name":"Good Eats Pizza & Subs","address":"1002 Tremont St","city":"Roxbury Crossing","state":"MA","postal_code":"02120","stars":4.0,"review_count":96,"is_open":1,"attributes":{"BusinessAcceptsCreditCards":"True","RestaurantsPriceRange2":"1","RestaurantsTakeOut":"True","RestaurantsDelivery":"True","WiFi":"u'no'","RestaurantsAttire":"u'casual'","GoodForKids":"True","HasTV":"True","BikeParking":"True","NoiseLevel":"u'average'","Caters":"True"},"categories":["Restaurants","Pizza"],"hours":{"Monday":"11:0-23:0","Tuesday":"11:0-23:0","Wednesday":"11:0-23:0","Thursday":"11:0-23:0","Friday":"11:0-23:0","Saturday":"11:0-23:0","Sunday":"12:0-21:0"}},{"name":"The Wine Cellar","address":"30 Massachusetts Ave","city":"Boston","state":"MA","postal_code":"02115","stars":3.0,"review_count":201,"is_open":0,"attributes":{"Alcohol":"'beer_and_wine'","BYOBCorkage":"'yes_corkage'","NoiseLevel":"u'average'","RestaurantsPriceRange2":"3","RestaurantsAttire":"'casual'","RestaurantsReservations":"True","Corkage":"True","BusinessAcceptsCreditCards":"True","WiFi":"u'no'"},"categories":["Gluten-Free","ComfortFood","Restaurants","French","Fondue"],"hours":{"Tuesday":"17:30-21:30","Wednesday":"17:30-21:30","Thursday":"17:30-21:30","Friday":"17:30-22:30","Saturday":"17:30-22:30","Sunday":"17:30-21:30"}},{"name":"Pressed Juicery","address":"288 Newbury St","city":"Boston","state":"MA","postal_code":"02115","stars":3.5,"review_count":68,"is_open":1,"attributes":{"NoiseLevel":"u'quiet'","WiFi":"'no'","OutdoorSeating":"True","BikeParking":"True","RestaurantsPriceRange2":"2","RestaurantsTakeOut":"True","RestaurantsDelivery":"True","BusinessAcceptsCreditCards":"True"},"categories":["IceCream&FrozenYogurt","Food","Restaurants","HealthMarkets","Vegan","SpecialtyFood","JuiceBars&Smoothies","ConvenienceStores"],"hours":{"Tuesday":"9:0-18:0","Wednesday":"9:0-18:0","Thursday":"8:0-20:0","Friday":"9:0-21:0","Saturday":"8:0-20:0","Sunday":"8:0-20:0"}},{"name":"AK's Takeout & Delivery","address":"1427 Tremont St","city":"Roxbury Crossing","state":"MA","postal_code":"02120","stars":3.0,"review_count":87,"is_open":1,"attributes":{"NoiseLevel":"'average'","RestaurantsDelivery":"True","BusinessAcceptsCreditCards":"True","RestaurantsAttire":"'casual'","GoodForKids":"True","RestaurantsGoodForGroups":"True","BYOBCorkage":"'no'","Caters":"True","WiFi":"'no'","RestaurantsTakeOut":"True","RestaurantsPriceRange2":"1","HasTV":"True","WheelchairAccessible":"True"},"categories":["American(Traditional)","Food","FoodDeliveryServices","Pizza","Restaurants","Italian"],"hours":{"Monday":"11:0-23:0","Tuesday":"11:0-0:0","Wednesday":"11:0-23:0","Thursday":"11:0-23:0","Friday":"11:0-23:0","Saturday":"11:0-23:0","Sunday":"11:0-23:0"}},{"name":"O'Naturals","address":"75 Francis St","city":"Boston","state":"MA","postal_code":"02115","stars":3.0,"review_count":26,"is_open":0,"attributes":{"RestaurantsAttire":"u'casual'","GoodForKids":"True","RestaurantsTakeOut":"True","BusinessAcceptsCreditCards":"True","Caters":"True","NoiseLevel":"u'quiet'","RestaurantsGoodForGroups":"True","BikeParking":"True","WiFi":"'free'","RestaurantsPriceRange2":"2"},"categories":["Sandwiches","Restaurants"],"hours":{"Monday":"6:30-19:0","Tuesday":"6:30-19:0","Wednesday":"6:30-19:0","Thursday":"6:30-19:0","Friday":"6:30-19:0","Saturday":"11:0-14:30","Sunday":"11:0-14:30"}},{"name":"Pho Basil","address":"177 Massachusetts Ave, Ste A","city":"Boston","state":"MA","postal_code":"02115","stars":4.0,"review_count":1230,"is_open":1,"attributes":{"BusinessAcceptsCreditCards":"True","Alcohol":"u'beer_and_wine'","WiFi":"u'no'","BikeParking":"True","RestaurantsGoodForGroups":"True","GoodForKids":"True","RestaurantsAttire":"u'casual'","NoiseLevel":"u'average'","RestaurantsPriceRange2":"2","RestaurantsTableService":"True","RestaurantsDelivery":"True","RestaurantsTakeOut":"True"},"categories":["Thai","Seafood","Vietnamese","Restaurants"],"hours":{"Monday":"11:30-22:0","Tuesday":"11:30-22:0","Wednesday":"11:30-22:0","Thursday":"11:30-22:0","Friday":"11:30-22:30","Saturday":"11:30-22:30","Sunday":"11:30-22:0"}},{"name":"Chilacates Mexican Street Food","address":"1482A Tremont St","city":"Boston","state":"MA","postal_code":"02120","stars":4.5,"review_count":36,"is_open":1,"attributes":{"RestaurantsTakeOut":"True","HasTV":"True","RestaurantsDelivery":"True","NoiseLevel":"u'average'","BusinessAcceptsCreditCards":"True"},"categories":["Restaurants","Mexican"],"hours":{"Monday":"7:0-22:0","Tuesday":"7:0-22:0","Wednesday":"7:0-22:0","Thursday":"7:0-22:0","Friday":"7:0-23:0","Saturday":"9:0-23:0","Sunday":"9:0-22:0"}},{"name":"Domino's Pizza","address":"1400 Tremont St, Roxbury Crossing Station - Space D","city":"Roxbury Crossing","state":"MA","postal_code":"02120","stars":1.5,"review_count":120,"is_open":1,"attributes":{"BusinessAcceptsCreditCards":"True","Caters":"True","RestaurantsDelivery":"True","RestaurantsAttire":"u'casual'","RestaurantsTakeOut":"True","WiFi":"u'no'","BikeParking":"True","HasTV":"True","NoiseLevel":"u'quiet'","RestaurantsPriceRange2":"1"},"categories":["Restaurants","Sandwiches","Pizza","ChickenWings"],"hours":{"Monday":"10:0-3:0","Tuesday":"10:0-3:0","Wednesday":"10:0-3:0","Thursday":"10:0-3:0","Friday":"10:0-4:0","Saturday":"10:0-4:0","Sunday":"10:0-3:0"}},{"name":"Temptations Cafe","address":"313 Huntington Ave","city":"Boston","state":"MA","postal_code":"02115","stars":4.0,"review_count":119,"is_open":0,"attributes":{"RestaurantsPriceRange2":"1","BikeParking":"True","RestaurantsAttire":"'casual'","BusinessAcceptsCreditCards":"True","WiFi":"u'free'","GoodForKids":"True","RestaurantsTakeOut":"True","NoiseLevel":"u'average'","BYOBCorkage":"'no'","RestaurantsGoodForGroups":"True"},"categories":["Sandwiches","Food","Coffee&Tea","Restaurants","Breakfast&Brunch"],"hours":{"Monday":"7:30-21:0","Tuesday":"7:30-21:0","Wednesday":"7:30-21:0","Thursday":"7:30-21:0","Friday":"7:30-21:0","Saturday":"10:0-19:0","Sunday":"10:0-19:0"}},{"name":"Caf\u00c3\u00a9 Jaffa","address":"48 Gloucester St","city":"Boston","state":"MA","postal_code":"02115","stars":3.5,"review_count":365,"is_open":0,"attributes":{"RestaurantsAttire":"'casual'","WiFi":"u'no'","RestaurantsPriceRange2":"2","RestaurantsTakeOut":"True","RestaurantsGoodForGroups":"True","RestaurantsDelivery":"True","BusinessAcceptsCreditCards":"True","GoodForKids":"True","BYOBCorkage":"'no'","Alcohol":"'beer_and_wine'","Caters":"True","NoiseLevel":"u'average'","BikeParking":"True","RestaurantsTableService":"True"},"categories":["Restaurants","Salad","MiddleEastern","Sandwiches"],"hours":{"Monday":"11:0-22:0","Tuesday":"11:0-22:0","Wednesday":"11:0-22:0","Thursday":"11:0-22:0","Friday":"11:0-22:30","Saturday":"11:0-22:30"}},{"name":"Betty's Wok & Noodle Diner","address":"250 Huntington Ave","city":"Boston","state":"MA","postal_code":"02115","stars":3.0,"review_count":162,"is_open":0,"attributes":{"RestaurantsPriceRange2":"2","NoiseLevel":"u'average'","Alcohol":"'full_bar'","BusinessAcceptsCreditCards":"True","RestaurantsTakeOut":"True","BYOBCorkage":"'no'","RestaurantsAttire":"'casual'","WiFi":"u'no'","RestaurantsReservations":"True","RestaurantsGoodForGroups":"True"},"categories":["Restaurants","LatinAmerican","Chinese","AsianFusion"],"hours":{"Monday":"12:0-22:0","Tuesday":"12:0-22:0","Wednesday":"12:0-22:0","Thursday":"12:0-22:0","Friday":"12:0-23:0","Saturday":"12:0-23:0","Sunday":"12:0-22:0"}},{"name":"Wings Over Boston","address":"325 Huntington Ave","city":"Boston","state":"MA","postal_code":"02115","stars":2.5,"review_count":181,"is_open":1,"attributes":{"WiFi":"u'no'","BikeParking":"True","GoodForKids":"True","RestaurantsTakeOut":"True","NoiseLevel":"u'average'","RestaurantsPriceRange2":"2","RestaurantsAttire":"u'casual'","RestaurantsGoodForGroups":"True","RestaurantsDelivery":"True","BusinessAcceptsCreditCards":"True","HasTV":"True"},"categories":["American(Traditional)","ChickenWings","Restaurants","American(New)","FastFood","Sandwiches"],"hours":{"Monday":"16:0-0:0","Tuesday":"16:0-0:0","Wednesday":"11:0-0:0","Thursday":"11:0-0:0","Friday":"11:0-2:0","Saturday":"11:0-2:0","Sunday":"11:0-0:0"}},{"name":"Boston Shawarma Restaurant","address":"226 Washington St","city":"Boston","state":"MA","postal_code":"02115","stars":3.5,"review_count":65,"is_open":0,"attributes":{"RestaurantsGoodForGroups":"True","RestaurantsDelivery":"True","RestaurantsTakeOut":"True","NoiseLevel":"u'quiet'","Alcohol":"'none'","BusinessAcceptsCreditCards":"True","RestaurantsAttire":"'casual'","WiFi":"'no'","HasTV":"True","RestaurantsPriceRange2":"1","GoodForKids":"True"},"categories":["Arabian","Restaurants","Lebanese","MiddleEastern"],"hours":{"Monday":"10:30-22:30","Tuesday":"10:30-22:30","Wednesday":"10:30-22:30","Thursday":"10:30-22:30","Friday":"10:30-22:30","Saturday":"10:30-22:30","Sunday":"10:30-22:30"}},{"name":"Energize","address":"265 Massachusetts Ave","city":"Boston","state":"MA","postal_code":"02115","stars":4.5,"review_count":59,"is_open":1,"attributes":{"RestaurantsDelivery":"True","RestaurantsGoodForGroups":"True","Caters":"True","BusinessAcceptsCreditCards":"True","GoodForKids":"True","RestaurantsTakeOut":"True","WiFi":"u'free'","WheelchairAccessible":"True","BikeParking":"True","OutdoorSeating":"True"},"categories":["Salad","Food","Restaurants","AcaiBowls","Vegan","JuiceBars&Smoothies"],"hours":{"Tuesday":"8:0-14:30","Wednesday":"10:0-16:0","Thursday":"10:0-16:0","Friday":"10:0-16:0","Saturday":"10:0-16:0","Sunday":"10:0-16:0"}},{"name":"Forty Dalton","address":"40 Dalton St","city":"Boston","state":"MA","postal_code":"02115","stars":2.5,"review_count":24,"is_open":1,"attributes":{"HasTV":"True","BusinessAcceptsCreditCards":"True","WiFi":"u'free'","NoiseLevel":"u'average'","Alcohol":"'full_bar'","RestaurantsGoodForGroups":"True","RestaurantsAttire":"'casual'","RestaurantsPriceRange2":"2","BikeParking":"True","GoodForKids":"True","RestaurantsTakeOut":"True"},"categories":["American(Traditional)","Restaurants"],"hours":{"Monday":"6:30-0:0","Tuesday":"6:30-0:0","Wednesday":"6:30-0:0","Thursday":"6:30-0:0","Friday":"6:30-0:0","Saturday":"7:0-0:0","Sunday":"7:0-0:0"}},{"name":"Dosa Factory - Boston","address":"316 Newbury St","city":"Boston","state":"MA","postal_code":"02115","stars":2.5,"review_count":182,"is_open":0,"attributes":{"RestaurantsPriceRange2":"2","RestaurantsAttire":"'casual'","WheelchairAccessible":"True","GoodForKids":"True","BikeParking":"True","RestaurantsTakeOut":"True","NoiseLevel":"u'average'","RestaurantsTableService":"True","RestaurantsGoodForGroups":"True","BusinessAcceptsCreditCards":"True","RestaurantsReservations":"True","Caters":"True","HasTV":"True","RestaurantsDelivery":"True","Alcohol":"'beer_and_wine'","WiFi":"u'no'"},"categories":["EventPlanning&Services","Indian","Restaurants","Caterers"],"hours":{"Monday":"11:30-22:30","Tuesday":"11:30-22:30","Wednesday":"11:30-22:30","Thursday":"11:30-22:30","Friday":"11:30-22:30","Saturday":"11:30-22:30","Sunday":"11:30-22:30"}},{"name":"Deuxave","address":"371 Commonwealth Ave","city":"Boston","state":"MA","postal_code":"02115","stars":4.0,"review_count":546,"is_open":1,"attributes":{"NoiseLevel":"u'average'","WiFi":"u'no'","BusinessAcceptsCreditCards":"True","RestaurantsReservations":"True","RestaurantsAttire":"u'dressy'","RestaurantsGoodForGroups":"True","Alcohol":"u'full_bar'","OutdoorSeating":"True","Smoking":"u'no'","RestaurantsPriceRange2":"3","RestaurantsTableService":"True","CoatCheck":"True","WheelchairAccessible":"True"},"categories":["Bars","Restaurants","American(New)","Nightlife","French"],"hours":{"Tuesday":"17:0-21:0","Wednesday":"17:0-21:0","Thursday":"17:0-21:0","Friday":"17:0-22:0","Saturday":"17:0-22:0"}},{"name":"Cafe G","address":"25 Evans Way","city":"Boston","state":"MA","postal_code":"02115","stars":4.0,"review_count":100,"is_open":1,"attributes":{"Alcohol":"u'beer_and_wine'","RestaurantsAttire":"u'casual'","OutdoorSeating":"True","RestaurantsPriceRange2":"2","WiFi":"'free'","BikeParking":"True","RestaurantsGoodForGroups":"True","RestaurantsReservations":"True","NoiseLevel":"u'average'","BusinessAcceptsCreditCards":"True"},"categories":["American(New)","Food","Coffee&Tea","French","Nightlife","Restaurants","Bars"],"hours":{"Monday":"11:0-17:0","Wednesday":"11:0-17:0","Thursday":"11:0-21:0","Friday":"11:0-17:0","Saturday":"11:0-17:0","Sunday":"11:0-17:0"}},{"name":"Bangkok City","address":"167 Massachusetts Ave","city":"Boston","state":"MA","postal_code":"02115","stars":4.0,"review_count":127,"is_open":0,"attributes":{"RestaurantsPriceRange2":"2","RestaurantsAttire":"'casual'","Alcohol":"'beer_and_wine'","RestaurantsReservations":"True","RestaurantsGoodForGroups":"True","BikeParking":"True","RestaurantsDelivery":"True","BusinessAcceptsCreditCards":"True","NoiseLevel":"u'quiet'","RestaurantsTakeOut":"True","GoodForKids":"True","WiFi":"u'no'"},"categories":["Restaurants","Thai"],"hours":{"Monday":"11:30-22:0","Tuesday":"11:30-22:0","Wednesday":"11:30-22:0","Thursday":"11:30-22:0","Friday":"11:30-22:30","Saturday":"11:30-22:30"}},{"name":"Thornton's","address":"150 Huntington Ave","city":"Boston","state":"MA","postal_code":"02115","stars":3.5,"review_count":530,"is_open":1,"attributes":{"RestaurantsAttire":"'casual'","RestaurantsTakeOut":"True","GoodForKids":"True","BusinessAcceptsCreditCards":"True","OutdoorSeating":"True","Alcohol":"'none'","RestaurantsGoodForGroups":"True","BikeParking":"True","RestaurantsTableService":"True","NoiseLevel":"u'average'","WheelchairAccessible":"True","RestaurantsDelivery":"True","WiFi":"u'free'","RestaurantsPriceRange2":"2"},"categories":["Restaurants","Cafes","Diners","Coffee&Tea","Food","Breakfast&Brunch"],"hours":{"Monday":"7:0-16:0","Tuesday":"7:0-16:0","Wednesday":"7:0-16:0","Thursday":"7:0-16:0","Friday":"7:0-16:0","Saturday":"8:0-16:0","Sunday":"8:0-16:0"}},{"name":"The Squealing Pig","address":"134 Smith St","city":"Boston","state":"MA","postal_code":"02120","stars":3.5,"review_count":410,"is_open":1,"attributes":{"RestaurantsGoodForGroups":"True","RestaurantsAttire":"'casual'","BusinessAcceptsCreditCards":"True","BYOBCorkage":"'no'","Alcohol":"'full_bar'","WiFi":"u'no'","RestaurantsPriceRange2":"2","RestaurantsTakeOut":"True","NoiseLevel":"u'average'","HasTV":"True","BikeParking":"True","Smoking":"u'no'","HappyHour":"True","RestaurantsTableService":"True","RestaurantsDelivery":"True"},"categories":["Food","Restaurants","Breakfast&Brunch","Bars","Pubs","Irish","IrishPub","Nightlife"],"hours":{"Monday":"7:0-1:0","Tuesday":"7:0-1:0","Wednesday":"7:0-1:0","Thursday":"7:0-1:0","Friday":"7:0-1:0","Saturday":"10:0-1:0","Sunday":"10:0-1:0"}},{"name":"Sushiemon","address":"201 Massachusetts Ave","city":"Boston","state":"MA","postal_code":"02115","stars":4.0,"review_count":74,"is_open":0,"attributes":{"NoiseLevel":"u'quiet'","RestaurantsAttire":"u'casual'","RestaurantsReservations":"True","HasTV":"True","RestaurantsTakeOut":"True","WheelchairAccessible":"True","Alcohol":"'none'","BusinessAcceptsCreditCards":"True","GoodForKids":"True","RestaurantsTableService":"True","RestaurantsDelivery":"True","WiFi":"u'no'","RestaurantsPriceRange2":"2","Caters":"True","HappyHour":"True","RestaurantsGoodForGroups":"True"},"categories":["Desserts","SushiBars","Food","Restaurants","Japanese"],"hours":{"Tuesday":"11:30-21:0","Wednesday":"11:30-21:0","Thursday":"11:30-21:0","Friday":"11:30-22:0","Saturday":"15:0-22:0"}},{"name":"Cappy's II","address":"309 Huntington Ave","city":"Boston","state":"MA","postal_code":"02115","stars":3.0,"review_count":39,"is_open":0,"attributes":{"RestaurantsTakeOut":"True","RestaurantsDelivery":"True","RestaurantsAttire":"'casual'","BusinessAcceptsCreditCards":"True","GoodForKids":"True","RestaurantsGoodForGroups":"True","RestaurantsPriceRange2":"1","NoiseLevel":"u'quiet'","WiFi":"u'no'","HasTV":"True"},"categories":["Pizza","Sandwiches","Restaurants"],"hours":{"Monday":"7:30-1:0","Tuesday":"7:30-1:0","Wednesday":"7:30-1:0","Thursday":"7:30-1:0","Friday":"7:30-1:0","Saturday":"7:30-1:0","Sunday":"7:30-1:0"}},{"name":"Charley's Eating & Drinking Saloon","address":"284 Newbury St","city":"Boston","state":"MA","postal_code":"02115","stars":3.5,"review_count":263,"is_open":0,"attributes":{"HasTV":"True","OutdoorSeating":"True","RestaurantsPriceRange2":"2","Alcohol":"'full_bar'","RestaurantsTakeOut":"True","BusinessAcceptsCreditCards":"True","RestaurantsReservations":"True","WiFi":"u'no'","RestaurantsGoodForGroups":"True","RestaurantsDelivery":"True","GoodForKids":"True","RestaurantsAttire":"'casual'","NoiseLevel":"u'average'","WheelchairAccessible":"True","RestaurantsTableService":"True","BYOBCorkage":"'no'"},"categories":["Breakfast&Brunch","American(Traditional)","Restaurants"],"hours":{"Monday":"11:30-0:30","Tuesday":"11:30-0:30","Wednesday":"11:30-0:30","Thursday":"11:30-0:30","Friday":"11:30-1:30","Saturday":"9:0-1:30","Sunday":"9:0-0:0"}},{"name":"Which Wich","address":"324 Newbury St","city":"Boston","state":"MA","postal_code":"02115","stars":2.5,"review_count":24,"is_open":1,"attributes":{"HasTV":"True","RestaurantsTakeOut":"True","BusinessAcceptsCreditCards":"True","RestaurantsDelivery":"True"},"categories":["Sandwiches","Restaurants","Vegan","EventPlanning&Services","Caterers"],"hours":{"Monday":"10:30-20:0","Tuesday":"10:30-20:0","Wednesday":"10:30-20:0","Thursday":"10:30-20:0","Friday":"10:30-21:0","Saturday":"10:30-21:0","Sunday":"10:30-20:0"}},{"name":"Solid Ground Cafe","address":"742 Huntington Ave","city":"Boston","state":"MA","postal_code":"02115","stars":5.0,"review_count":56,"is_open":1,"attributes":{"BusinessAcceptsCreditCards":"True","WiFi":"u'free'","WheelchairAccessible":"True","RestaurantsTakeOut":"True","Caters":"True","BikeParking":"True"},"categories":["Sandwiches","Coffee&Tea","Food","Restaurants","Cafes"],"hours":{"Tuesday":"7:0-15:0","Wednesday":"7:0-15:0","Thursday":"7:0-15:0","Friday":"7:0-15:0","Saturday":"8:0-15:0","Sunday":"8:0-15:0"}},{"name":"The Mission Bar & Grill","address":"724 Huntington Ave","city":"Boston","state":"MA","postal_code":"02120","stars":3.5,"review_count":335,"is_open":1,"attributes":{"RestaurantsAttire":"u'casual'","RestaurantsTakeOut":"True","BikeParking":"True","RestaurantsGoodForGroups":"True","RestaurantsDelivery":"True","BusinessAcceptsCreditCards":"True","HasTV":"True","RestaurantsPriceRange2":"2","WiFi":"'no'","Alcohol":"'full_bar'","NoiseLevel":"u'average'","HappyHour":"True","Smoking":"u'no'","OutdoorSeating":"True"},"categories":["Restaurants","Bars","Nightlife","American(New)"],"hours":{"Monday":"11:0-0:0","Tuesday":"11:0-0:0","Wednesday":"11:0-0:0","Thursday":"11:0-0:0","Friday":"11:0-0:0","Saturday":"9:0-0:0","Sunday":"9:0-0:0"}},{"name":"Mississippi's Restaurant","address":"103 Terrace St","city":"Roxbury Crossing","state":"MA","postal_code":"02120","stars":4.0,"review_count":6,"is_open":0,"attributes":{"RestaurantsPriceRange2":"1","RestaurantsTakeOut":"True","BusinessAcceptsCreditCards":"True","RestaurantsGoodForGroups":"True"},"categories":["Restaurants","Caterers","EventPlanning&Services"],"hours":{"Monday":"7:0-15:30","Tuesday":"7:0-15:30","Wednesday":"7:0-15:30","Thursday":"7:0-15:30","Friday":"7:0-15:30"}},{"name":"Bukowski Tavern","address":"50 Dalton St","city":"Boston","state":"MA","postal_code":"02115","stars":3.5,"review_count":695,"is_open":1,"attributes":{"HasTV":"True","Alcohol":"u'beer_and_wine'","NoiseLevel":"u'average'","RestaurantsPriceRange2":"2","RestaurantsAttire":"u'casual'","RestaurantsGoodForGroups":"True","WiFi":"u'no'","HappyHour":"True","WheelchairAccessible":"True","RestaurantsTableService":"True","RestaurantsTakeOut":"True","BusinessAcceptsCreditCards":"True"},"categories":["Restaurants","Bars","Nightlife","Pubs","American(Traditional)","DiveBars"],"hours":{"Tuesday":"16:0-1:0","Wednesday":"16:0-1:0","Thursday":"16:0-1:0","Friday":"12:0-1:0","Saturday":"12:0-1:0","Sunday":"12:0-1:0"}},{"name":"Sprout","address":"305 Huntington Ave","city":"Boston","state":"MA","postal_code":"02115","stars":4.5,"review_count":13,"is_open":1,"attributes":{"Caters":"True","HasTV":"True","RestaurantsTakeOut":"True","WiFi":"u'free'","WheelchairAccessible":"True","BikeParking":"True","RestaurantsDelivery":"True"},"categories":["Food","Salad","EventPlanning&Services","Caterers","Restaurants"],"hours":{"Tuesday":"11:0-21:30","Wednesday":"11:0-21:30","Thursday":"11:0-21:30","Friday":"11:0-21:30","Saturday":"11:0-21:30"}},{"name":"Towne Stove and Spirits","address":"900 Boylston St","city":"Boston","state":"MA","postal_code":"02115","stars":3.0,"review_count":595,"is_open":0,"attributes":{"RestaurantsTakeOut":"True","RestaurantsAttire":"u'dressy'","RestaurantsPriceRange2":"3","Alcohol":"u'full_bar'","Caters":"True","RestaurantsDelivery":"True","RestaurantsGoodForGroups":"True","BikeParking":"True","NoiseLevel":"u'average'","WheelchairAccessible":"True","RestaurantsReservations":"True","WiFi":"u'free'","OutdoorSeating":"True","BusinessAcceptsCreditCards":"True","HasTV":"True","RestaurantsTableService":"True"},"categories":["Breakfast&Brunch","Restaurants","American(New)"],"hours":{"Monday":"11:0-23:0","Tuesday":"11:30-2:0","Wednesday":"11:30-2:0","Thursday":"11:30-2:0","Friday":"11:30-2:0","Saturday":"11:0-2:0","Sunday":"11:0-2:0"}},{"name":"Crossroads Irish Pub","address":"495 Beacon St","city":"Boston","state":"MA","postal_code":"02115","stars":3.5,"review_count":167,"is_open":0,"attributes":{"BYOBCorkage":"'yes_free'","RestaurantsTakeOut":"True","RestaurantsGoodForGroups":"True","NoiseLevel":"u'average'","BusinessAcceptsCreditCards":"True","Alcohol":"'full_bar'","WiFi":"u'no'","RestaurantsAttire":"'casual'","RestaurantsPriceRange2":"1","BikeParking":"True","HasTV":"True","RestaurantsReservations":"True"},"categories":["Sandwiches","Nightlife","Bars","Irish","Restaurants","DiveBars","Pubs"],"hours":{"Monday":"16:0-2:0","Tuesday":"16:0-2:0","Wednesday":"16:0-2:0","Thursday":"16:0-2:0","Friday":"16:0-2:0","Saturday":"11:0-2:0","Sunday":"11:0-2:0"}},{"name":"T Sushi Wraps & Noodles","address":"350 Longwood Ave","city":"Boston","state":"MA","postal_code":"02115","stars":3.5,"review_count":21,"is_open":1,"attributes":{"RestaurantsGoodForGroups":"True","BusinessAcceptsCreditCards":"True","GoodForKids":"True","RestaurantsAttire":"'casual'","NoiseLevel":"u'very_loud'","RestaurantsPriceRange2":"1","HasTV":"True","RestaurantsTakeOut":"True","RestaurantsDelivery":"True"},"categories":["SushiBars","Restaurants","Wraps","Noodles","Japanese"],"hours":{"Monday":"11:0-21:0","Tuesday":"11:0-21:0","Wednesday":"11:0-21:0","Thursday":"11:0-21:0","Friday":"11:0-21:0","Saturday":"11:0-21:0","Sunday":"11:0-21:0"}},{"name":"Cornish Pasty","address":"51 Massachusetts Ave","city":"Boston","state":"MA","postal_code":"02115","stars":4.5,"review_count":281,"is_open":1,"attributes":{"RestaurantsGoodForGroups":"True","NoiseLevel":"u'average'","Caters":"True","GoodForKids":"True","Smoking":"u'no'","BusinessAcceptsCreditCards":"True","RestaurantsPriceRange2":"2","Alcohol":"u'full_bar'","RestaurantsTakeOut":"True","WheelchairAccessible":"True","RestaurantsTableService":"True","WiFi":"u'free'","RestaurantsDelivery":"True","BikeParking":"True","OutdoorSeating":"True","RestaurantsReservations":"True","RestaurantsAttire":"'casual'"},"categories":["SpecialtyFood","Bakeries","Food","British","Vegetarian","Italian","Cafes","Mexican","Caterers","CocktailBars","Pubs","Vegan","Restaurants","Nightlife","EventPlanning&Services","Bars","Soup","Salad"],"hours":{"Tuesday":"12:0-21:0","Wednesday":"12:0-21:0","Thursday":"12:0-21:0","Friday":"12:0-21:0","Saturday":"12:0-21:0","Sunday":"12:0-21:0"}},{"name":"Boston Shawarma","address":"315 Huntington Ave","city":"Boston","state":"MA","postal_code":"02115","stars":4.0,"review_count":563,"is_open":1,"attributes":{"BusinessAcceptsCreditCards":"True","RestaurantsTakeOut":"True","RestaurantsPriceRange2":"1","RestaurantsAttire":"'casual'","GoodForKids":"True","NoiseLevel":"u'average'","HasTV":"True","BikeParking":"True","WiFi":"'no'","BYOBCorkage":"'yes_free'","DogsAllowed":"True","Caters":"True","RestaurantsDelivery":"True","RestaurantsGoodForGroups":"True"},"categories":["Sandwiches","MiddleEastern","Desserts","Halal","Lebanese","Mediterranean","Food","FastFood","Restaurants"],"hours":{"Monday":"10:0-23:0","Tuesday":"10:0-23:0","Wednesday":"10:0-23:0","Thursday":"10:0-23:0","Friday":"10:0-23:0","Saturday":"10:0-23:0","Sunday":"10:0-23:0"}},{"name":"Sonsie","address":"327 Newbury St","city":"Boston","state":"MA","postal_code":"02115","stars":3.5,"review_count":1314,"is_open":1,"attributes":{"BusinessAcceptsCreditCards":"True","RestaurantsGoodForGroups":"True","RestaurantsAttire":"'casual'","RestaurantsTakeOut":"True","WiFi":"u'free'","RestaurantsReservations":"True","BikeParking":"True","RestaurantsTableService":"True","BYOBCorkage":"'no'","WheelchairAccessible":"True","Alcohol":"'full_bar'","CoatCheck":"True","Smoking":"u'no'","HasTV":"True","NoiseLevel":"u'loud'","RestaurantsPriceRange2":"2","RestaurantsDelivery":"True","OutdoorSeating":"True"},"categories":["American(New)","Nightlife","Bars","WineBars","Lounges","French","Restaurants","Breakfast&Brunch"],"hours":{"Monday":"9:30-1:0","Tuesday":"16:0-22:0","Wednesday":"16:0-22:0","Thursday":"8:0-23:0","Friday":"11:30-23:0","Saturday":"10:0-22:0","Sunday":"9:30-2:0"}},{"name":"Laughing Monk Cafe","address":"737 Huntington Ave","city":"Boston","state":"MA","postal_code":"02115","stars":4.5,"review_count":244,"is_open":1,"attributes":{"RestaurantsGoodForGroups":"True","NoiseLevel":"u'average'","RestaurantsAttire":"'casual'","BusinessAcceptsCreditCards":"True","GoodForKids":"True","Caters":"True","Alcohol":"u'beer_and_wine'","HasTV":"True","RestaurantsReservations":"True","WiFi":"u'no'","RestaurantsDelivery":"True","RestaurantsPriceRange2":"2","RestaurantsTakeOut":"True","RestaurantsTableService":"True","OutdoorSeating":"True"},"categories":["Japanese","SushiBars","Restaurants","Thai","AsianFusion"],"hours":{"Tuesday":"11:0-21:0","Wednesday":"11:0-21:0","Thursday":"11:0-21:0","Friday":"11:0-21:0","Saturday":"12:0-21:0","Sunday":"12:0-21:0"}},{"name":"Bottega Fiorentina","address":"264 Newbury St","city":"Boston","state":"MA","postal_code":"02115","stars":3.0,"review_count":70,"is_open":0,"attributes":{"RestaurantsAttire":"'casual'","OutdoorSeating":"True","NoiseLevel":"u'quiet'","GoodForKids":"True","RestaurantsPriceRange2":"2","BusinessAcceptsCreditCards":"True","Alcohol":"'beer_and_wine'","RestaurantsTakeOut":"True","RestaurantsDelivery":"True"},"categories":["Italian","Restaurants"],"hours":{"Monday":"11:0-22:0","Tuesday":"11:0-22:0","Wednesday":"11:0-22:0","Thursday":"11:0-23:0","Friday":"11:0-23:0","Saturday":"11:0-23:0","Sunday":"11:0-22:0"}},{"name":"The Pour House","address":"907 Boylston St","city":"Boston","state":"MA","postal_code":"02115","stars":3.5,"review_count":1132,"is_open":0,"attributes":{"RestaurantsGoodForGroups":"True","RestaurantsPriceRange2":"1","RestaurantsTakeOut":"True","WiFi":"u'no'","HasTV":"True","BusinessAcceptsCreditCards":"True","Alcohol":"'full_bar'","RestaurantsAttire":"'casual'","Smoking":"u'no'","BYOBCorkage":"'no'","RestaurantsTableService":"True","BikeParking":"True","NoiseLevel":"u'average'","HappyHour":"True"},"categories":["Nightlife","American(Traditional)","American(New)","Restaurants","Bars"],"hours":{"Monday":"8:0-2:0","Tuesday":"8:0-2:0","Wednesday":"8:0-2:0","Thursday":"8:0-2:0","Friday":"8:0-2:0","Saturday":"8:0-2:0","Sunday":"8:0-2:0"}},{"name":"Caf\u00c3\u00a9 47","address":"47 Massachusetts Ave","city":"Boston","state":"MA","postal_code":"02115","stars":3.5,"review_count":126,"is_open":0,"attributes":{"RestaurantsPriceRange2":"2","RestaurantsReservations":"True","RestaurantsAttire":"u'casual'","BusinessAcceptsCreditCards":"True","RestaurantsTakeOut":"True","Alcohol":"u'beer_and_wine'","NoiseLevel":"u'average'","WiFi":"u'no'","GoodForKids":"True","RestaurantsGoodForGroups":"True","OutdoorSeating":"True","Caters":"True","HasTV":"True"},"categories":["Italian","American(New)","Restaurants","Burgers","Pizza"],"hours":{"Monday":"16:30-23:0","Tuesday":"16:30-23:0","Wednesday":"16:30-23:0","Thursday":"16:30-23:0","Friday":"11:30-23:0","Saturday":"10:0-23:0","Sunday":"10:0-23:0"}},{"name":"The Other Side Cafe","address":"407 Newbury St","city":"Boston","state":"MA","postal_code":"02115","stars":3.5,"review_count":672,"is_open":0,"attributes":{"RestaurantsPriceRange2":"2","RestaurantsTakeOut":"True","BusinessAcceptsCreditCards":"True","WiFi":"u'free'","Alcohol":"'beer_and_wine'","RestaurantsGoodForGroups":"True","RestaurantsAttire":"'casual'","OutdoorSeating":"True","BYOBCorkage":"'no'","NoiseLevel":"u'average'"},"categories":["Breakfast&Brunch","Vegetarian","Vegan","American(Traditional)","Restaurants","Food","LocalFlavor","Sandwiches","Bars","Nightlife","Beer","Wine&Spirits"],"hours":{"Monday":"11:30-0:0","Tuesday":"11:30-0:0","Wednesday":"11:30-0:0","Thursday":"11:30-0:0","Friday":"11:30-1:0","Saturday":"10:0-1:0","Sunday":"10:0-0:0"}},{"name":"FoMu Ice Cream","address":"140 Brookline Ave","city":"Boston","state":"MA","postal_code":"02115","stars":4.5,"review_count":21,"is_open":1,"attributes":{"RestaurantsTakeOut":"True","RestaurantsDelivery":"True"},"categories":["Restaurants","Vegan","Food","Desserts","IceCream&FrozenYogurt"],"hours":{"Monday":"13:0-21:0","Tuesday":"13:0-21:0","Wednesday":"13:0-21:0","Thursday":"13:0-21:0","Friday":"13:0-21:0","Saturday":"13:0-21:0","Sunday":"13:0-21:0"}},{"name":"Love Art Sushi","address":"1 Haviland St","city":"Boston","state":"MA","postal_code":"02115","stars":4.0,"review_count":312,"is_open":1,"attributes":{"Caters":"True","BusinessAcceptsCreditCards":"True","RestaurantsGoodForGroups":"True","RestaurantsPriceRange2":"2","RestaurantsTakeOut":"True","WiFi":"u'free'","GoodForKids":"True","WheelchairAccessible":"True","RestaurantsAttire":"'casual'","BikeParking":"True","RestaurantsDelivery":"True","Alcohol":"'none'","HappyHour":"True","NoiseLevel":"u'average'"},"categories":["Hawaiian","BubbleTea","Poke","Food","Restaurants","Japanese","SushiBars"],"hours":{"Monday":"10:30-22:0","Tuesday":"10:30-22:0","Wednesday":"10:30-22:0","Thursday":"10:30-22:0","Friday":"10:30-22:0","Saturday":"10:30-22:0","Sunday":"10:30-22:0"}},{"name":"Blazing Paddles","address":"82 Lansdowne St","city":"Boston","state":"MA","postal_code":"02115","stars":2.5,"review_count":30,"is_open":1,"attributes":{"Smoking":"u'no'","HasTV":"True","OutdoorSeating":"True","NoiseLevel":"u'loud'","RestaurantsGoodForGroups":"True","BusinessAcceptsCreditCards":"True","CoatCheck":"True","WheelchairAccessible":"True","WiFi":"'no'","RestaurantsPriceRange2":"2","BikeParking":"True","Alcohol":"u'full_bar'"},"categories":["ActiveLife","Nightlife","American(New)","Restaurants","Tennis","SportsBars","Bars"],"hours":{"Monday":"11:0-1:0","Tuesday":"11:0-1:0","Wednesday":"11:0-1:0","Thursday":"11:0-2:0","Friday":"11:0-2:0","Saturday":"11:0-2:0","Sunday":"11:0-1:0"}},{"name":"Popeyes Louisiana Kitchen","address":"360 Huntington Ave","city":"Boston","state":"MA","postal_code":"02115","stars":2.5,"review_count":21,"is_open":1,"attributes":{"BusinessAcceptsCreditCards":"True","RestaurantsTakeOut":"True","RestaurantsPriceRange2":"1","RestaurantsDelivery":"True"},"categories":["Restaurants","American(Traditional)","Seafood","FastFood","ChickenWings"],"hours":{"Monday":"10:30-21:0","Tuesday":"10:30-21:0","Wednesday":"10:30-21:0","Thursday":"10:30-21:0","Friday":"10:30-21:0","Saturday":"10:30-20:0","Sunday":"10:30-19:0"}},{"name":"McGreevy's","address":"911 Boylston St","city":"Boston","state":"MA","postal_code":"02115","stars":3.5,"review_count":360,"is_open":0,"attributes":{"RestaurantsPriceRange2":"2","RestaurantsTakeOut":"True","BikeParking":"True","NoiseLevel":"u'loud'","RestaurantsAttire":"u'casual'","RestaurantsGoodForGroups":"True","BusinessAcceptsCreditCards":"True","HasTV":"True","Alcohol":"'full_bar'","WiFi":"u'free'","HappyHour":"True","RestaurantsTableService":"True","RestaurantsDelivery":"True"},"categories":["American(Traditional)","Breakfast&Brunch","SportsBars","Irish","Nightlife","Bars","Restaurants"],"hours":{"Monday":"11:0-2:0","Tuesday":"11:0-2:0","Wednesday":"11:0-2:0","Thursday":"11:0-2:0","Friday":"11:0-2:0","Saturday":"10:0-2:0","Sunday":"10:0-2:0"}},{"name":"Corner Tavern","address":"421 Marlborough St","city":"Boston","state":"MA","postal_code":"02115","stars":4.0,"review_count":254,"is_open":1,"attributes":{"RestaurantsPriceRange2":"2","WiFi":"u'free'","RestaurantsAttire":"u'casual'","BusinessAcceptsCreditCards":"True","Alcohol":"u'full_bar'","RestaurantsTakeOut":"True","BikeParking":"True","NoiseLevel":"u'average'","HasTV":"True","RestaurantsGoodForGroups":"True","RestaurantsDelivery":"True"},"categories":["Restaurants","American(New)","Bars","Nightlife"],"hours":{"Monday":"12:0-0:0","Wednesday":"12:0-0:0","Thursday":"12:0-0:0","Friday":"12:0-0:0","Saturday":"12:0-0:0","Sunday":"12:0-0:0"}},{"name":"465 Bar and Restaurant","address":"465 Huntington Ave","city":"Boston","state":"MA","postal_code":"02115","stars":4.0,"review_count":10,"is_open":1,"attributes":{"RestaurantsReservations":"True"},"categories":["American(New)","Restaurants","CocktailBars","Nightlife","Bars"],"hours":{"Wednesday":"11:30-22:0","Thursday":"11:30-22:0","Friday":"11:30-22:0","Saturday":"11:30-17:0","Sunday":"11:30-17:0"}},{"name":"Sweet 'n Nasty","address":"","city":"Boston","state":"MA","postal_code":"02115","stars":4.0,"review_count":73,"is_open":1,"attributes":{"RestaurantsPriceRange2":"2","BusinessAcceptsCreditCards":"True","Caters":"True","WheelchairAccessible":"True","RestaurantsDelivery":"True"},"categories":["Bakeries","Shopping","Food","Restaurants","CustomCakes","CandyStores","SpecialtyFood","Adult"],"hours":{"Tuesday":"10:0-16:0","Wednesday":"10:0-19:0","Thursday":"10:0-19:0","Friday":"10:0-19:0","Saturday":"10:0-18:0","Sunday":"11:0-17:0"}},{"name":"Panera Bread","address":"289 Huntington Ave","city":"Boston","state":"MA","postal_code":"02115","stars":2.5,"review_count":108,"is_open":1,"attributes":{"NoiseLevel":"u'average'","BusinessAcceptsCreditCards":"True","RestaurantsAttire":"u'casual'","RestaurantsGoodForGroups":"True","RestaurantsPriceRange2":"2","GoodForKids":"True","BikeParking":"True","HasTV":"True","Caters":"True","WiFi":"u'free'","RestaurantsDelivery":"True","RestaurantsTakeOut":"True"},"categories":["Soup","Breakfast&Brunch","Salad","Food","Sandwiches","Bagels","Restaurants"],"hours":{"Tuesday":"6:0-22:0","Wednesday":"6:0-22:0","Thursday":"6:0-22:0","Friday":"6:0-22:0","Saturday":"6:0-22:0","Sunday":"7:0-22:0"}},{"name":"Soul Fire BBQ","address":"737 Huntington Ave","city":"Boston","state":"MA","postal_code":"02115","stars":3.5,"review_count":100,"is_open":0,"attributes":{"RestaurantsTakeOut":"True","Alcohol":"u'beer_and_wine'","RestaurantsPriceRange2":"2","RestaurantsAttire":"u'casual'","HasTV":"True","RestaurantsDelivery":"True","BusinessAcceptsCreditCards":"True","GoodForKids":"True","NoiseLevel":"u'average'","RestaurantsGoodForGroups":"True","BikeParking":"True","WiFi":"u'no'"},"categories":["Barbeque","Restaurants"],"hours":{"Monday":"11:30-22:0","Tuesday":"11:30-22:0","Wednesday":"11:30-22:0","Thursday":"11:30-22:0","Friday":"11:30-22:0","Saturday":"11:30-22:0","Sunday":"11:30-22:0"}},{"name":"Flour Bakery + Caf\u00c3\u00a9","address":"30 Dalton St","city":"Boston","state":"MA","postal_code":"02115","stars":4.5,"review_count":150,"is_open":1,"attributes":{"BikeParking":"True","RestaurantsPriceRange2":"1","WiFi":"'free'","RestaurantsTakeOut":"True","GoodForKids":"True","BusinessAcceptsCreditCards":"True","RestaurantsAttire":"'casual'","Caters":"True","HasTV":"True","RestaurantsDelivery":"True","OutdoorSeating":"True","NoiseLevel":"u'average'"},"categories":["Sandwiches","Restaurants","Bakeries","Desserts","Food"],"hours":{"Monday":"7:0-19:0","Tuesday":"7:0-19:0","Wednesday":"7:0-19:0","Thursday":"7:0-19:0","Friday":"7:0-19:0","Saturday":"8:0-18:0","Sunday":"8:0-18:0"}},{"name":"B.GOOD","address":"137 Massachusetts Ave","city":"Boston","state":"MA","postal_code":"02115","stars":3.5,"review_count":147,"is_open":1,"attributes":{"WiFi":"u'free'","GoodForKids":"True","BusinessAcceptsCreditCards":"True","NoiseLevel":"u'average'","RestaurantsTakeOut":"True","RestaurantsPriceRange2":"1","RestaurantsAttire":"u'casual'","RestaurantsGoodForGroups":"True","BikeParking":"True","RestaurantsDelivery":"True"},"categories":["FastFood","Restaurants","Salad","Sandwiches","Burgers","JuiceBars&Smoothies","American(New)","Food","American(Traditional)"],"hours":{"Monday":"10:30-21:0","Tuesday":"10:30-21:0","Wednesday":"10:30-21:0","Thursday":"10:30-21:0","Friday":"10:30-21:0","Saturday":"10:30-21:0","Sunday":"10:30-20:0"}},{"name":"Saigon Fusion","address":"201 Massachusetts Ave","city":"Boston","state":"MA","postal_code":"02115","stars":4.5,"review_count":19,"is_open":1,"attributes":{"RestaurantsTakeOut":"True","RestaurantsReservations":"True"},"categories":["Vietnamese","Restaurants","AsianFusion","BubbleTea","Food"],"hours":{"Monday":"11:0-21:0","Tuesday":"11:0-21:0","Wednesday":"11:0-21:0","Thursday":"11:0-21:0","Friday":"11:0-21:0","Saturday":"11:0-21:0","Sunday":"11:0-19:0"}},{"name":"Sushi Today","address":"1562 Tremont St","city":"Boston","state":"MA","postal_code":"02120","stars":4.0,"review_count":39,"is_open":1,"attributes":{"WiFi":"u'free'","GoodForKids":"True","RestaurantsTableService":"True","Caters":"True","RestaurantsTakeOut":"True","RestaurantsDelivery":"True","RestaurantsGoodForGroups":"True","BikeParking":"True","BusinessAcceptsCreditCards":"True","RestaurantsReservations":"True","HappyHour":"True","HasTV":"True"},"categories":["Japanese","Restaurants","SushiBars","Vegetarian","AsianFusion"],"hours":{"Monday":"11:0-22:0","Tuesday":"11:0-22:0","Wednesday":"11:0-22:0","Thursday":"11:0-22:0","Friday":"11:0-22:30","Saturday":"11:0-22:30","Sunday":"11:0-21:0"}},{"name":"Au Bon Pain","address":"100 Huntington Ave","city":"Boston","state":"MA","postal_code":"02115","stars":3.0,"review_count":24,"is_open":1,"attributes":{"NoiseLevel":"u'average'","OutdoorSeating":"True","WiFi":"'free'","RestaurantsTakeOut":"True","HasTV":"True","GoodForKids":"True","BusinessAcceptsCreditCards":"True","DogsAllowed":"True","RestaurantsAttire":"'casual'","RestaurantsGoodForGroups":"True","RestaurantsPriceRange2":"1"},"categories":["Desserts","Bakeries","Coffee&Tea","Sandwiches","Food","Restaurants"],"hours":{"Monday":"6:0-21:0","Tuesday":"6:0-21:0","Wednesday":"6:0-21:0","Thursday":"6:0-21:0","Friday":"6:0-21:0","Saturday":"7:0-21:0","Sunday":"7:0-19:0"}},{"name":"Ruby Room","address":"155 Portland St","city":"Boston","state":"MA","postal_code":"02115","stars":3.0,"review_count":24,"is_open":1,"attributes":{"WiFi":"u'free'","RestaurantsTakeOut":"True","Alcohol":"'full_bar'","RestaurantsReservations":"True","BikeParking":"True","BusinessAcceptsCreditCards":"True","NoiseLevel":"'quiet'","HasTV":"True","RestaurantsAttire":"'casual'","RestaurantsPriceRange2":"3"},"categories":["American(New)","Bars","Nightlife","Lounges","Restaurants"],"hours":{"Monday":"17:0-21:0","Tuesday":"17:0-21:0","Wednesday":"17:0-21:0","Thursday":"17:0-21:0","Friday":"17:0-21:0","Saturday":"17:0-21:0"}},{"name":"Santouka Back Bay","address":"66 Hereford St","city":"Boston","state":"MA","postal_code":"02115","stars":4.0,"review_count":593,"is_open":1,"attributes":{"NoiseLevel":"u'average'","WheelchairAccessible":"True","BusinessAcceptsCreditCards":"True","RestaurantsAttire":"u'casual'","RestaurantsPriceRange2":"2","RestaurantsTableService":"True","RestaurantsDelivery":"True","RestaurantsTakeOut":"True","WiFi":"'no'"},"categories":["Restaurants","Noodles","Soup","Japanese","Ramen"],"hours":{"Monday":"11:0-20:45","Tuesday":"11:0-20:45","Wednesday":"11:0-20:45","Thursday":"11:0-20:45","Friday":"11:0-21:15","Saturday":"10:30-21:15","Sunday":"10:30-21:15"}},{"name":"Brigham Circle Diner","address":"737 Huntington Ave","city":"Boston","state":"MA","postal_code":"02115","stars":3.0,"review_count":31,"is_open":0,"attributes":{"WiFi":"'no'","BYOBCorkage":"'no'","RestaurantsAttire":"'casual'","NoiseLevel":"u'quiet'","RestaurantsTakeOut":"True","RestaurantsGoodForGroups":"True","RestaurantsPriceRange2":"1","GoodForKids":"True"},"categories":["Breakfast&Brunch","Diners","Food","Coffee&Tea","Restaurants"],"hours":{"Monday":"17:30-16:0","Tuesday":"17:30-16:0","Wednesday":"17:30-16:0","Thursday":"17:30-16:0","Friday":"17:30-16:0"}},{"name":"Boston Market","address":"245 Massachusetts Ave","city":"Boston","state":"MA","postal_code":"02115","stars":2.5,"review_count":47,"is_open":0,"attributes":{"RestaurantsPriceRange2":"1","RestaurantsTakeOut":"True","BusinessAcceptsCreditCards":"True","RestaurantsGoodForGroups":"True","GoodForKids":"True","RestaurantsAttire":"u'casual'","BikeParking":"True","Caters":"True","WiFi":"'no'","NoiseLevel":"u'average'","WheelchairAccessible":"True"},"categories":["Restaurants","ComfortFood","Caterers","Sandwiches","American(Traditional)","EventPlanning&Services","ChickenShop"],"hours":{"Monday":"10:30-22:0","Tuesday":"10:30-22:0","Wednesday":"10:30-22:0","Thursday":"10:30-22:0","Friday":"10:30-22:0","Saturday":"10:30-22:0","Sunday":"10:30-22:0"}},{"name":"Ichiban Yakitori Sushi House","address":"14 Westland Ave","city":"Boston","state":"MA","postal_code":"02115","stars":3.5,"review_count":157,"is_open":1,"attributes":{"Alcohol":"u'beer_and_wine'","RestaurantsDelivery":"True","RestaurantsAttire":"u'casual'","NoiseLevel":"u'average'","RestaurantsTakeOut":"True","RestaurantsPriceRange2":"2","BusinessAcceptsCreditCards":"True","RestaurantsReservations":"True","RestaurantsGoodForGroups":"True","WiFi":"u'no'","HasTV":"True","GoodForKids":"True","HappyHour":"True","Smoking":"u'no'","RestaurantsTableService":"True"},"categories":["Restaurants","Vietnamese","Korean","AsianFusion","Japanese"],"hours":{"Tuesday":"11:30-21:30","Wednesday":"11:30-22:0","Thursday":"11:30-22:0","Friday":"15:0-21:45","Saturday":"11:30-23:0","Sunday":"12:0-22:0"}},{"name":"J's Tomodachi Sushi","address":"201 Massachusetts Ave","city":"Boston","state":"MA","postal_code":"02115","stars":3.5,"review_count":51,"is_open":0,"attributes":{"BusinessAcceptsCreditCards":"True","RestaurantsGoodForGroups":"True","NoiseLevel":"u'quiet'","GoodForKids":"True","RestaurantsPriceRange2":"2","RestaurantsTakeOut":"True","RestaurantsAttire":"u'casual'","Caters":"True"},"categories":["Restaurants","Japanese","SushiBars"],"hours":{"Monday":"11:30-22:30","Tuesday":"11:30-22:30","Wednesday":"11:30-22:30","Thursday":"11:30-22:30","Friday":"11:30-22:30","Saturday":"11:30-22:30","Sunday":"12:0-21:30"}},{"name":"Oath Pizza - Fenway","address":"1348 Boylston St","city":"Boston","state":"MA","postal_code":"02115","stars":3.5,"review_count":76,"is_open":1,"attributes":{"WiFi":"u'free'","RestaurantsPriceRange2":"2","RestaurantsAttire":"'casual'","Alcohol":"u'beer_and_wine'","BusinessAcceptsCreditCards":"True","GoodForKids":"True","BikeParking":"True","NoiseLevel":"u'average'","RestaurantsGoodForGroups":"True","WheelchairAccessible":"True","RestaurantsTakeOut":"True","RestaurantsDelivery":"True","Caters":"True"},"categories":["Pizza","Salad","Restaurants","Desserts","Vegan","Food"],"hours":{"Monday":"15:0-21:0","Tuesday":"15:0-21:0","Wednesday":"15:0-21:0","Thursday":"15:0-21:0","Friday":"11:0-21:0","Saturday":"11:0-21:0","Sunday":"15:0-21:0"}},{"name":"Farmer Horse Coffee","address":"374 Massachusetts Ave","city":"Boston","state":"MA","postal_code":"02115","stars":4.0,"review_count":226,"is_open":1,"attributes":{"RestaurantsPriceRange2":"1","BusinessAcceptsCreditCards":"True","WiFi":"u'free'","WheelchairAccessible":"True","RestaurantsDelivery":"True","BikeParking":"True","DogsAllowed":"True","Caters":"True","GoodForKids":"True","NoiseLevel":"u'quiet'","RestaurantsTakeOut":"True"},"categories":["Cafes","Coffee&Tea","EventPlanning&Services","Caterers","Restaurants","Food"],"hours":{"Monday":"6:0-20:0","Tuesday":"6:0-22:0","Wednesday":"6:0-20:0","Thursday":"6:0-20:0","Friday":"6:0-20:0","Saturday":"6:0-20:0","Sunday":"6:0-20:0"}},{"name":"Dunkin'","address":"1131 Tremont St, Platform G","city":"Boston","state":"MA","postal_code":"02120","stars":2.5,"review_count":11,"is_open":1,"attributes":{"BusinessAcceptsCreditCards":"True","RestaurantsPriceRange2":"1","WiFi":"u'free'","RestaurantsTakeOut":"True","RestaurantsDelivery":"True"},"categories":["Donuts","Restaurants","Coffee&Tea","Food"],"hours":{"Monday":"5:0-21:30","Tuesday":"5:0-21:30","Wednesday":"5:0-21:30","Thursday":"5:0-21:30","Friday":"5:0-21:30","Saturday":"5:30-20:30","Sunday":"6:30-20:30"}},{"name":"Five Guys","address":"263 Huntington Ave","city":"Boston","state":"MA","postal_code":"02115","stars":3.5,"review_count":68,"is_open":1,"attributes":{"WiFi":"'no'","RestaurantsTakeOut":"True","BikeParking":"True","RestaurantsPriceRange2":"1","RestaurantsGoodForGroups":"True","BusinessAcceptsCreditCards":"True","NoiseLevel":"u'average'","RestaurantsAttire":"u'casual'","GoodForKids":"True","RestaurantsDelivery":"True"},"categories":["Food","Restaurants","FastFood","HotDogs","American(New)","Burgers"],"hours":{"Monday":"11:0-21:0","Tuesday":"11:0-21:0","Wednesday":"11:0-21:0","Thursday":"12:0-21:0","Friday":"11:0-22:0","Saturday":"11:0-22:0","Sunday":"11:0-21:0"}},{"name":"Dunkin'","address":"153 Massachusetts Ave","city":"Boston","state":"MA","postal_code":"02115","stars":3.5,"review_count":24,"is_open":1,"attributes":{"BusinessAcceptsCreditCards":"True","BikeParking":"True","RestaurantsPriceRange2":"1","RestaurantsTakeOut":"True","Caters":"True","RestaurantsDelivery":"True","WiFi":"u'free'"},"categories":["Restaurants","Coffee&Tea","Donuts","Food"],"hours":{"Monday":"5:0-23:0","Tuesday":"5:0-23:0","Wednesday":"5:0-23:0","Thursday":"5:0-23:0","Friday":"5:0-23:0","Saturday":"5:0-23:0","Sunday":"5:0-23:0"}},{"name":"Revolution Health Kitchen","address":"150 Huntington Ave","city":"Boston","state":"MA","postal_code":"02115","stars":4.0,"review_count":98,"is_open":1,"attributes":{"GoodForKids":"True","BikeParking":"True","RestaurantsTakeOut":"True","RestaurantsAttire":"'casual'","BusinessAcceptsCreditCards":"True","RestaurantsPriceRange2":"2","WheelchairAccessible":"True","WiFi":"'no'","DogsAllowed":"True"},"categories":["Coffee&Tea","Soup","Food","JuiceBars&Smoothies","Restaurants"],"hours":{"Tuesday":"10:0-15:0","Wednesday":"10:0-14:0","Thursday":"10:0-15:0","Friday":"10:0-15:0","Saturday":"10:0-14:0"}},{"name":"Wheeler's Frozen Desserts","address":"334 Massachusetts Ave, Ste B","city":"Boston","state":"MA","postal_code":"02115","stars":3.5,"review_count":46,"is_open":0,"attributes":{"RestaurantsTakeOut":"True","RestaurantsGoodForGroups":"True","Alcohol":"'none'","RestaurantsPriceRange2":"1","GoodForKids":"True","RestaurantsAttire":"'casual'"},"categories":["Desserts","Restaurants","Vegan","Food"],"hours":{"Monday":"13:0-21:0","Tuesday":"13:0-21:0","Wednesday":"13:0-21:0","Thursday":"13:0-21:0","Friday":"13:0-21:0","Saturday":"13:0-21:0","Sunday":"13:0-21:0"}},{"name":"Pho & I","address":"267 Huntington Ave","city":"Boston","state":"MA","postal_code":"02115","stars":3.0,"review_count":322,"is_open":0,"attributes":{"RestaurantsAttire":"'casual'","BYOBCorkage":"'no'","RestaurantsReservations":"True","RestaurantsPriceRange2":"2","RestaurantsTakeOut":"True","RestaurantsGoodForGroups":"True","GoodForKids":"True","BikeParking":"True","BusinessAcceptsCreditCards":"True","RestaurantsDelivery":"True","Alcohol":"'beer_and_wine'","HasTV":"True","Caters":"True","WheelchairAccessible":"True","NoiseLevel":"u'average'","WiFi":"u'no'"},"categories":["Food","Vegan","Thai","Vietnamese","Restaurants","Desserts"],"hours":{"Monday":"11:30-22:0","Tuesday":"11:30-22:0","Wednesday":"11:30-22:0","Thursday":"11:30-22:0","Friday":"11:30-22:30","Saturday":"11:30-22:30","Sunday":"11:30-22:0"}},{"name":"Summer Shack - Boston","address":"50 Dalton St","city":"Boston","state":"MA","postal_code":"02115","stars":3.5,"review_count":923,"is_open":1,"attributes":{"GoodForKids":"True","RestaurantsAttire":"'casual'","BusinessAcceptsCreditCards":"True","BYOBCorkage":"'yes_corkage'","Corkage":"True","RestaurantsGoodForGroups":"True","RestaurantsReservations":"True","RestaurantsPriceRange2":"2","HasTV":"True","RestaurantsTakeOut":"True","NoiseLevel":"u'average'","WiFi":"u'no'","Alcohol":"'full_bar'","BikeParking":"True","HappyHour":"True","Smoking":"u'no'","RestaurantsTableService":"True","WheelchairAccessible":"True"},"categories":["Seafood","American(Traditional)","Bars","Nightlife","American(New)","Restaurants"],"hours":{"Tuesday":"16:0-21:0","Wednesday":"16:0-21:0","Thursday":"16:0-21:0","Friday":"16:0-21:0","Saturday":"11:30-21:0","Sunday":"11:30-21:0"}},{"name":"Brigham Circle Chinese Food","address":"728 Huntington Ave","city":"Boston","state":"MA","postal_code":"02115","stars":2.5,"review_count":107,"is_open":1,"attributes":{"NoiseLevel":"u'loud'","RestaurantsPriceRange2":"1","Alcohol":"'none'","RestaurantsDelivery":"True","RestaurantsAttire":"'casual'","RestaurantsTakeOut":"True","WiFi":"u'no'","BusinessAcceptsCreditCards":"True","BikeParking":"True"},"categories":["FoodDeliveryServices","Food","SushiBars","Restaurants","Chinese"],"hours":{"Monday":"11:0-23:0","Tuesday":"11:0-23:0","Wednesday":"11:0-23:0","Thursday":"11:0-23:0","Friday":"11:0-23:0","Saturday":"11:0-23:0","Sunday":"11:0-23:0"}},{"name":"Vivi Bubble Tea Cafe","address":"182 Massachusetts Ave","city":"Boston","state":"MA","postal_code":"02115","stars":4.0,"review_count":52,"is_open":1,"attributes":{"WheelchairAccessible":"True","Caters":"True","BikeParking":"True","WiFi":"u'free'","HasTV":"True","BusinessAcceptsCreditCards":"True","RestaurantsPriceRange2":"1","RestaurantsDelivery":"True","RestaurantsTakeOut":"True"},"categories":["Food","Desserts","Taiwanese","Restaurants","BubbleTea"],"hours":{"Monday":"11:0-22:0","Tuesday":"11:0-22:0","Wednesday":"11:0-22:0","Thursday":"11:0-22:0","Friday":"11:0-1:0","Saturday":"11:0-1:0","Sunday":"11:0-22:0"}},{"name":"Halal Indian Cuisine","address":"736 Huntington Ave","city":"Boston","state":"MA","postal_code":"02115","stars":3.0,"review_count":121,"is_open":1,"attributes":{"Caters":"True","NoiseLevel":"u'average'","RestaurantsPriceRange2":"2","GoodForKids":"True","RestaurantsTakeOut":"True","RestaurantsAttire":"u'casual'","RestaurantsGoodForGroups":"True","RestaurantsDelivery":"True","WiFi":"u'no'","BusinessAcceptsCreditCards":"True","HasTV":"True"},"categories":["Indian","Halal","Restaurants"],"hours":{"Monday":"11:30-21:30","Tuesday":"11:30-21:30","Wednesday":"11:30-21:30","Thursday":"11:30-21:30","Friday":"11:30-21:30","Saturday":"11:30-21:30","Sunday":"11:30-21:30"}},{"name":"Boston House of Pizza","address":"305 Huntington Ave","city":"Boston","state":"MA","postal_code":"02115","stars":2.5,"review_count":111,"is_open":1,"attributes":{"RestaurantsAttire":"'casual'","RestaurantsPriceRange2":"1","RestaurantsDelivery":"True","BYOBCorkage":"'yes_free'","Alcohol":"'none'","RestaurantsGoodForGroups":"True","RestaurantsTakeOut":"True","BusinessAcceptsCreditCards":"True","GoodForKids":"True","NoiseLevel":"u'very_loud'","BikeParking":"True","HasTV":"True","WiFi":"'no'"},"categories":["Pizza","Restaurants"],"hours":{"Monday":"10:0-0:30","Tuesday":"10:0-0:30","Wednesday":"10:0-0:30","Thursday":"10:0-0:30","Friday":"10:0-0:30","Saturday":"10:0-0:30","Sunday":"10:0-0:30"}},{"name":"Bertucci's Italian Restaurant","address":"1 Blackfan Cir","city":"Boston","state":"MA","postal_code":"02115","stars":3.0,"review_count":91,"is_open":1,"attributes":{"HasTV":"True","BusinessAcceptsCreditCards":"True","RestaurantsGoodForGroups":"True","RestaurantsAttire":"'casual'","RestaurantsTakeOut":"True","NoiseLevel":"u'average'","RestaurantsPriceRange2":"2","Alcohol":"u'beer_and_wine'","GoodForKids":"True","Caters":"True","RestaurantsReservations":"True","WiFi":"u'free'","RestaurantsDelivery":"True"},"categories":["Food","Breweries","Italian","Pizza","Desserts","Restaurants"],"hours":{"Tuesday":"11:0-22:0","Wednesday":"11:0-22:0","Thursday":"11:0-22:0","Friday":"11:30-23:0","Saturday":"11:0-22:0","Sunday":"10:0-21:0"}},{"name":"University House of Pizza","address":"452 Huntington Ave","city":"Boston","state":"MA","postal_code":"02115","stars":3.0,"review_count":149,"is_open":1,"attributes":{"Caters":"True","BusinessAcceptsCreditCards":"True","Alcohol":"u'full_bar'","RestaurantsPriceRange2":"1","RestaurantsAttire":"'casual'","RestaurantsTakeOut":"True","RestaurantsGoodForGroups":"True","RestaurantsDelivery":"True","NoiseLevel":"u'average'","RestaurantsCounterService":"True","HasTV":"True","WiFi":"'no'","GoodForKids":"True"},"categories":["Pizza","Salad","Greek","Burgers","Restaurants"],"hours":{"Monday":"10:0-1:0","Tuesday":"10:0-1:0","Wednesday":"11:0-1:0","Thursday":"10:0-1:0","Friday":"10:0-1:0","Saturday":"11:0-1:0","Sunday":"10:0-1:0"}},{"name":"Pavement Coffeehouse","address":"286 Newbury St","city":"Boston","state":"MA","postal_code":"02115","stars":3.5,"review_count":203,"is_open":1,"attributes":{"RestaurantsPriceRange2":"1","BusinessAcceptsCreditCards":"True","OutdoorSeating":"True","WiFi":"u'free'","RestaurantsTakeOut":"True","RestaurantsAttire":"'casual'","NoiseLevel":"'average'","RestaurantsDelivery":"True","HasTV":"True","BikeParking":"True"},"categories":["Restaurants","Food","Coffee&Tea","Bagels","Sandwiches"],"hours":{"Monday":"7:0-19:0","Tuesday":"7:0-19:0","Wednesday":"7:0-19:0","Thursday":"7:0-19:0","Friday":"7:0-19:0","Saturday":"7:0-19:0","Sunday":"7:0-19:0"}},{"name":"Lir Irish Pub & Restaurant","address":"903 Boylston St","city":"Boston","state":"MA","postal_code":"02115","stars":3.0,"review_count":281,"is_open":0,"attributes":{"RestaurantsGoodForGroups":"True","RestaurantsAttire":"'casual'","BikeParking":"True","NoiseLevel":"u'loud'","RestaurantsPriceRange2":"2","HasTV":"True","BYOBCorkage":"'no'","BusinessAcceptsCreditCards":"True","WiFi":"u'no'","Alcohol":"'full_bar'","RestaurantsTableService":"True","HappyHour":"True","WheelchairAccessible":"True"},"categories":["Pubs","Breakfast&Brunch","American(New)","Bars","Restaurants","Nightlife"],"hours":{"Monday":"11:30-1:0","Tuesday":"11:30-1:0","Wednesday":"11:30-1:0","Thursday":"11:30-2:0","Friday":"11:30-2:0","Saturday":"10:0-2:0","Sunday":"9:0-2:0"}},{"name":"Flann O'Brien's","address":"1619 Tremont St","city":"Roxbury Crossing","state":"MA","postal_code":"02120","stars":3.5,"review_count":149,"is_open":1,"attributes":{"WiFi":"u'no'","RestaurantsTakeOut":"True","Alcohol":"'full_bar'","BikeParking":"True","BusinessAcceptsCreditCards":"True","NoiseLevel":"u'loud'","RestaurantsGoodForGroups":"True","HasTV":"True","RestaurantsPriceRange2":"2","RestaurantsAttire":"u'casual'"},"categories":["Restaurants","Irish","Nightlife","Beer","Wine&Spirits","Food","Bars","Pubs"],"hours":{"Monday":"10:0-1:0","Tuesday":"10:0-1:0","Wednesday":"10:0-1:0","Thursday":"10:0-1:0","Friday":"10:0-1:0","Saturday":"9:0-1:0","Sunday":"9:0-1:0"}},{"name":"Dos Diablos Taco Bar","address":"50 Gainsborough St","city":"Boston","state":"MA","postal_code":"02115","stars":2.5,"review_count":18,"is_open":1,"attributes":{"BusinessAcceptsCreditCards":"True"},"categories":["Tacos","Bars","Nightlife","Mexican","Restaurants"],"hours":{"Monday":"16:0-2:0","Tuesday":"16:0-2:0","Wednesday":"16:0-2:0","Thursday":"16:0-2:0","Friday":"16:0-2:0","Saturday":"16:0-2:0"}},{"name":"Naco Taco on Newbury","address":"354 Newbury St","city":"Boston","state":"MA","postal_code":"02115","stars":4.5,"review_count":37,"is_open":1,"attributes":{"RestaurantsPriceRange2":"1","HasTV":"True","BusinessAcceptsCreditCards":"True"},"categories":["FoodTrucks","Restaurants","Food","StreetVendors","Tacos","Mexican"],"hours":{"Tuesday":"11:0-20:0","Wednesday":"11:0-20:0","Thursday":"11:0-20:0","Friday":"11:0-20:0","Saturday":"11:0-20:0","Sunday":"11:0-20:0"}},{"name":"Wollastons","address":"369 Huntington Ave","city":"Boston","state":"MA","postal_code":"02115","stars":3.0,"review_count":13,"is_open":1,"attributes":{"HasTV":"True","RestaurantsPriceRange2":"2","BusinessAcceptsCreditCards":"True","RestaurantsTakeOut":"True","BikeParking":"True"},"categories":["Sandwiches","Restaurants","InternationalGrocery","Food","Delis","Grocery"],"hours":{"Monday":"7:0-1:0","Tuesday":"7:0-1:0","Wednesday":"7:0-1:0","Thursday":"7:0-1:0","Friday":"7:0-1:0","Saturday":"7:0-1:0","Sunday":"7:0-1:0"}},{"name":"Nachlo","address":"1443 Tremont St","city":"Roxbury Crossing","state":"MA","postal_code":"02120","stars":4.0,"review_count":45,"is_open":1,"attributes":{"RestaurantsDelivery":"True","BusinessAcceptsCreditCards":"True","HasTV":"True","RestaurantsTakeOut":"True"},"categories":["Pakistani","Mexican","Halal","Restaurants"],"hours":{"Monday":"10:0-23:0","Tuesday":"10:0-23:0","Wednesday":"10:0-23:0","Thursday":"10:0-23:0","Friday":"10:0-23:0","Saturday":"10:0-23:0","Sunday":"10:0-23:0"}},{"name":"Bangkok Pinto","address":"1041 Tremont St","city":"Boston","state":"MA","postal_code":"02120","stars":4.0,"review_count":109,"is_open":1,"attributes":{"RestaurantsPriceRange2":"1","RestaurantsTableService":"True","GoodForKids":"True","RestaurantsAttire":"'casual'","Caters":"True","BusinessAcceptsCreditCards":"True","RestaurantsTakeOut":"True","NoiseLevel":"u'quiet'","WiFi":"'no'","RestaurantsDelivery":"True","HasTV":"True","Alcohol":"'none'"},"categories":["Thai","Caterers","EventPlanning&Services","Restaurants"],"hours":{"Tuesday":"11:0-22:0","Wednesday":"11:0-22:0","Thursday":"11:0-22:0","Friday":"11:0-22:0","Saturday":"11:0-22:0","Sunday":"11:0-22:0"}},{"name":"Dunkin'","address":"115 Forsyth St","city":"Boston","state":"MA","postal_code":"02115","stars":3.0,"review_count":8,"is_open":1,"attributes":{"BusinessAcceptsCreditCards":"True","RestaurantsPriceRange2":"1","WiFi":"'free'","RestaurantsTakeOut":"True","RestaurantsDelivery":"True"},"categories":["Food","Donuts","Coffee&Tea","Restaurants"],"hours":{"Monday":"6:30-19:0","Tuesday":"6:30-19:0","Wednesday":"6:30-19:0","Thursday":"6:30-19:0","Friday":"6:30-19:0"}},{"name":"Subway","address":"393 Massachusetts Ave, Space F-1","city":"Boston","state":"MA","postal_code":"02115","stars":3.0,"review_count":15,"is_open":1,"attributes":{"RestaurantsPriceRange2":"1","BusinessAcceptsCreditCards":"True","BikeParking":"True","Caters":"True","RestaurantsTakeOut":"True","Alcohol":"'none'","GoodForKids":"True","RestaurantsAttire":"'casual'","WiFi":"u'free'","HasTV":"True"},"categories":["Sandwiches","Restaurants","FastFood"],"hours":{"Monday":"6:0-0:30","Tuesday":"6:0-0:30","Wednesday":"6:0-0:30","Thursday":"6:0-0:30","Friday":"6:0-0:30","Saturday":"8:0-0:30","Sunday":"9:0-0:30"}},{"name":"Sebastians Caf\u00c3\u00a9 & Catering","address":"251 Massachusetts Ave","city":"Boston","state":"MA","postal_code":"02115","stars":3.0,"review_count":8,"is_open":0,"attributes":{"HasTV":"True","WiFi":"u'no'","RestaurantsDelivery":"True","Caters":"True","RestaurantsTakeOut":"True","BusinessAcceptsCreditCards":"True","NoiseLevel":"u'quiet'","GoodForKids":"True","RestaurantsPriceRange2":"2","RestaurantsGoodForGroups":"True","RestaurantsAttire":"u'casual'"},"categories":["Restaurants","Sandwiches","American(New)"],"hours":{"Monday":"7:0-21:0","Tuesday":"7:0-21:0","Wednesday":"7:0-21:0","Thursday":"7:0-21:0","Friday":"7:0-21:0","Saturday":"7:0-21:0","Sunday":"7:0-20:0"}},{"name":"Moby Dick","address":"269 Huntington Ave","city":"Boston","state":"MA","postal_code":"02115","stars":3.5,"review_count":149,"is_open":1,"attributes":{"RestaurantsGoodForGroups":"True","WiFi":"u'no'","RestaurantsPriceRange2":"2","RestaurantsDelivery":"True","Alcohol":"'none'","RestaurantsAttire":"'casual'","GoodForKids":"True","RestaurantsTakeOut":"True","BYOBCorkage":"'yes_free'","BikeParking":"True","NoiseLevel":"u'quiet'","HasTV":"True"},"categories":["MiddleEastern","Restaurants","Persian\/Iranian"],"hours":{"Monday":"11:0-22:30","Tuesday":"11:0-22:30","Wednesday":"11:0-22:30","Thursday":"11:0-22:30","Friday":"11:0-22:30","Saturday":"11:0-22:30","Sunday":"12:0-21:30"}},{"name":"Zigo","address":"3 Blackfan Cir, Center for Life Science Boston, 2nd Fl","city":"Boston","state":"MA","postal_code":"02115","stars":2.5,"review_count":5,"is_open":0,"attributes":{"RestaurantsPriceRange2":"1","RestaurantsTakeOut":"True","RestaurantsAttire":"u'casual'","BusinessAcceptsCreditCards":"True"},"categories":["Coffee&Tea","Restaurants","Sandwiches","Food"],"hours":{"Monday":"8:0-19:0","Tuesday":"8:0-19:0","Wednesday":"8:0-19:0","Thursday":"8:0-19:0","Friday":"8:0-19:0"}},{"name":"Asta","address":"47 Massachusetts Ave","city":"Boston","state":"MA","postal_code":"02115","stars":4.0,"review_count":189,"is_open":1,"attributes":{"RestaurantsGoodForGroups":"True","RestaurantsAttire":"u'casual'","BusinessAcceptsCreditCards":"True","RestaurantsReservations":"True","RestaurantsPriceRange2":"4","WiFi":"u'no'","BikeParking":"True","Alcohol":"u'beer_and_wine'","NoiseLevel":"u'average'","RestaurantsTakeOut":"True","HasTV":"True"},"categories":["American(New)","WineBars","Tapas\/SmallPlates","Nightlife","Bars","Restaurants"],"hours":{"Tuesday":"18:0-22:30","Wednesday":"18:0-22:30","Thursday":"18:0-22:30","Friday":"18:0-22:30","Saturday":"18:0-22:30"}},{"name":"Haju Kitchen","address":"175 Massachusetts Ave","city":"Boston","state":"MA","postal_code":"02115","stars":3.5,"review_count":136,"is_open":1,"attributes":{"GoodForKids":"True","RestaurantsPriceRange2":"2","BusinessAcceptsCreditCards":"True","RestaurantsReservations":"True","RestaurantsTableService":"True","RestaurantsTakeOut":"True","RestaurantsAttire":"'casual'","NoiseLevel":"u'average'","RestaurantsGoodForGroups":"True","WiFi":"'no'","BikeParking":"True","RestaurantsDelivery":"True","Alcohol":"u'beer_and_wine'","HasTV":"True"},"categories":["Korean","Mexican","AsianFusion","Restaurants","ChickenWings","Soup"],"hours":{"Monday":"11:30-22:30","Tuesday":"11:30-22:30","Wednesday":"11:30-22:30","Thursday":"11:30-22:30","Friday":"11:30-22:30","Saturday":"11:30-22:30","Sunday":"11:30-22:30"}},{"name":"La Piazza at Eataly Boston","address":"800 Boylston St","city":"Boston","state":"MA","postal_code":"02115","stars":3.0,"review_count":16,"is_open":1,"attributes":{"GoodForKids":"True","BikeParking":"True","WiFi":"'no'","BusinessAcceptsCreditCards":"True","RestaurantsTakeOut":"True","Alcohol":"u'full_bar'","RestaurantsAttire":"'casual'","HasTV":"True","NoiseLevel":"'loud'","RestaurantsPriceRange2":"2"},"categories":["Italian","Bars","WineBars","Nightlife","Restaurants"],"hours":{"Monday":"7:0-23:0","Tuesday":"7:0-23:0","Wednesday":"7:0-23:0","Thursday":"7:0-23:0","Friday":"7:0-23:0","Saturday":"7:0-23:0","Sunday":"7:0-23:0"}},{"name":"Museum Of Fine Arts","address":"465 Huntington Ave","city":"Boston","state":"MA","postal_code":"02115","stars":4.5,"review_count":790,"is_open":1,"attributes":{"RestaurantsGoodForGroups":"True","RestaurantsPriceRange2":"2","RestaurantsAttire":"u'casual'","WiFi":"u'free'","BusinessAcceptsCreditCards":"True","GoodForKids":"True","BikeParking":"True","NoiseLevel":"u'quiet'"},"categories":["Museums","Shopping","Restaurants","ArtGalleries","Education","ArtMuseums","Arts&Crafts","Arts&Entertainment"],"hours":{"Wednesday":"10:0-17:0","Thursday":"10:0-17:0","Friday":"10:0-17:0","Saturday":"10:0-17:0","Sunday":"10:0-17:0"}},{"name":"Pavement Coffeehouse","address":"44 Gainsborough St","city":"Boston","state":"MA","postal_code":"02115","stars":3.5,"review_count":263,"is_open":1,"attributes":{"WiFi":"'free'","RestaurantsAttire":"'casual'","BikeParking":"True","RestaurantsPriceRange2":"2","RestaurantsTakeOut":"True","BusinessAcceptsCreditCards":"True","RestaurantsGoodForGroups":"True","GoodForKids":"True","Alcohol":"'none'","RestaurantsDelivery":"True","NoiseLevel":"u'average'"},"categories":["Coffee&Tea","Restaurants","Sandwiches","Breakfast&Brunch","Bagels","Food"],"hours":{"Monday":"7:0-14:0","Tuesday":"7:0-14:0","Wednesday":"7:0-14:0","Thursday":"7:0-14:0","Friday":"7:0-14:0","Saturday":"7:0-14:0","Sunday":"7:0-14:0"}},{"name":"Mama's Place","address":"764 Huntington Ave","city":"Boston","state":"MA","postal_code":"02115","stars":3.5,"review_count":171,"is_open":1,"attributes":{"RestaurantsDelivery":"True","RestaurantsTakeOut":"True","BusinessAcceptsCreditCards":"True","Caters":"True","GoodForKids":"True","RestaurantsPriceRange2":"1","NoiseLevel":"u'average'","BikeParking":"True","WiFi":"u'no'","RestaurantsAttire":"u'casual'","HasTV":"True"},"categories":["American(Traditional)","Burgers","Restaurants","Greek","Salad","ChickenWings","Seafood"],"hours":{"Monday":"11:0-22:0","Tuesday":"11:0-22:0","Wednesday":"11:0-22:0","Thursday":"11:0-22:0","Friday":"11:0-23:0","Saturday":"11:0-23:0"}},{"name":"Supreme Pizza","address":"177 Massachusetts Ave","city":"Boston","state":"MA","postal_code":"02115","stars":3.0,"review_count":132,"is_open":1,"attributes":{"RestaurantsPriceRange2":"1","RestaurantsAttire":"'casual'","Caters":"True","RestaurantsGoodForGroups":"True","BusinessAcceptsCreditCards":"True","RestaurantsTakeOut":"True","HasTV":"True","GoodForKids":"True","WiFi":"u'free'","Alcohol":"'none'","NoiseLevel":"u'average'","RestaurantsDelivery":"True"},"categories":["Restaurants","Sandwiches","Pizza"],"hours":{"Monday":"10:0-2:0","Tuesday":"10:0-2:0","Wednesday":"10:0-2:0","Thursday":"10:0-2:0","Friday":"10:0-2:0","Saturday":"10:0-2:0","Sunday":"10:0-2:0"}},{"name":"Butterfly Falafel","address":"1420 Tremont St","city":"Roxbury Crossing","state":"MA","postal_code":"02120","stars":3.5,"review_count":48,"is_open":1,"attributes":{"RestaurantsPriceRange2":"1","WiFi":"u'free'","BusinessAcceptsCreditCards":"True","BikeParking":"True","RestaurantsDelivery":"True","NoiseLevel":"u'average'","RestaurantsTakeOut":"True","RestaurantsReservations":"True","RestaurantsAttire":"'casual'","Caters":"True","RestaurantsGoodForGroups":"True","HasTV":"True"},"categories":["MiddleEastern","Mediterranean","Coffee&Tea","Food","Restaurants","Sandwiches","Falafel"],"hours":{"Monday":"8:0-18:30","Tuesday":"8:0-18:30","Wednesday":"8:0-18:30","Thursday":"8:0-18:30","Friday":"8:0-18:30","Saturday":"9:0-14:0","Sunday":"9:0-14:0"}},{"name":"Chinese Food Truck","address":"Louis Pasteur Ave","city":"Boston","state":"MA","postal_code":"02115","stars":3.5,"review_count":30,"is_open":1,"attributes":{"GoodForKids":"True","BikeParking":"True","WiFi":"u'no'","RestaurantsGoodForGroups":"True","RestaurantsAttire":"u'casual'","RestaurantsTakeOut":"True","NoiseLevel":"'average'","BYOBCorkage":"'yes_free'","RestaurantsPriceRange2":"1","HasTV":"True"},"categories":["Chinese","Restaurants","FoodStands"],"hours":{"Monday":"11:0-15:0","Tuesday":"11:0-15:0","Wednesday":"11:0-15:0","Thursday":"11:0-15:0","Friday":"11:0-15:0"}},{"name":"Tatte Bakery & Cafe","address":"160 Massachusetts Ave","city":"Boston","state":"MA","postal_code":"02115","stars":4.5,"review_count":17,"is_open":1,"attributes":{"RestaurantsPriceRange2":"2","BusinessAcceptsCreditCards":"True","WiFi":"u'free'","HasTV":"True","RestaurantsDelivery":"True","OutdoorSeating":"True","RestaurantsTakeOut":"True","NoiseLevel":"u'average'"},"categories":["Food","Bakeries","Restaurants","Cafes"],"hours":{"Monday":"7:0-20:0","Tuesday":"7:0-20:0","Wednesday":"7:0-20:0","Thursday":"7:0-20:0","Friday":"7:0-20:0","Saturday":"8:0-20:0","Sunday":"8:0-19:0"}},{"name":"Orange Corner Cafe","address":"374 Massachusetts Ave","city":"Boston","state":"MA","postal_code":"02115","stars":3.5,"review_count":26,"is_open":0,"attributes":{"RestaurantsPriceRange2":"1","RestaurantsAttire":"u'casual'","BusinessAcceptsCreditCards":"True","RestaurantsTakeOut":"True","NoiseLevel":"u'quiet'","WiFi":"u'paid'","GoodForKids":"True"},"categories":["Restaurants","Cafes","Food","Coffee&Tea"],"hours":{"Monday":"7:0-22:0","Tuesday":"7:0-22:0","Wednesday":"7:0-22:0","Thursday":"7:0-22:0","Friday":"7:0-22:0","Saturday":"7:0-22:0","Sunday":"8:0-22:0"}},{"name":"Pita","address":"197A Massachusetts Ave","city":"Boston","state":"MA","postal_code":"02115","stars":4.0,"review_count":118,"is_open":0,"attributes":{"RestaurantsPriceRange2":"1","WiFi":"u'no'","RestaurantsAttire":"u'casual'","GoodForKids":"True","BusinessAcceptsCreditCards":"True","Caters":"True","OutdoorSeating":"True","RestaurantsTakeOut":"True","NoiseLevel":"u'quiet'","RestaurantsDelivery":"True","BikeParking":"True"},"categories":["Moroccan","Food","Halal","Restaurants","MiddleEastern","Mediterranean"],"hours":{"Monday":"10:0-22:0","Tuesday":"10:0-22:0","Wednesday":"10:0-22:0","Thursday":"10:0-22:0","Friday":"10:0-23:0","Saturday":"10:0-23:0","Sunday":"10:0-22:0"}},{"name":"Kings Dining & Entertainment","address":"50 Dalton St","city":"Boston","state":"MA","postal_code":"02115","stars":3.0,"review_count":514,"is_open":1,"attributes":{"RestaurantsReservations":"True","RestaurantsTakeOut":"True","Caters":"True","RestaurantsPriceRange2":"2","RestaurantsGoodForGroups":"True","RestaurantsAttire":"'casual'","BYOBCorkage":"'no'","GoodForKids":"True","WiFi":"u'free'","NoiseLevel":"u'very_loud'","BusinessAcceptsCreditCards":"True","HasTV":"True","RestaurantsTableService":"True","Alcohol":"'full_bar'","CoatCheck":"True","Smoking":"u'no'","BikeParking":"True","WheelchairAccessible":"True","HappyHour":"True"},"categories":["PoolHalls","SportsBars","Bowling","EventPlanning&Services","American(Traditional)","Restaurants","Nightlife","Bars","ActiveLife","Party&EventPlanning","CocktailBars"],"hours":{"Monday":"11:0-1:0","Wednesday":"16:0-21:30","Thursday":"16:0-21:30","Friday":"16:0-21:30","Saturday":"14:0-21:30","Sunday":"12:0-1:0"}},{"name":"Sunrise Chinese Food","address":"1033 Tremont St","city":"Roxbury Crossing","state":"MA","postal_code":"02120","stars":3.0,"review_count":76,"is_open":1,"attributes":{"RestaurantsPriceRange2":"2","RestaurantsTakeOut":"True","BusinessAcceptsCreditCards":"True","RestaurantsDelivery":"True","RestaurantsAttire":"u'casual'","NoiseLevel":"u'quiet'","BikeParking":"True","WiFi":"'no'"},"categories":["Chinese","Restaurants"],"hours":{"Tuesday":"15:0-2:0","Wednesday":"15:0-2:0","Thursday":"15:0-2:0","Friday":"15:0-3:0","Saturday":"15:0-3:0","Sunday":"15:0-2:0"}},{"name":"Casa Romero","address":"30 Gloucester St","city":"Boston","state":"MA","postal_code":"02115","stars":3.5,"review_count":535,"is_open":1,"attributes":{"RestaurantsTakeOut":"True","RestaurantsAttire":"'casual'","BusinessAcceptsCreditCards":"True","RestaurantsReservations":"True","BikeParking":"True","BYOBCorkage":"'no'","Alcohol":"'full_bar'","OutdoorSeating":"True","RestaurantsGoodForGroups":"True","RestaurantsPriceRange2":"2","WiFi":"u'no'","NoiseLevel":"u'average'","HasTV":"True"},"categories":["Mediterranean","Spanish","Restaurants","Mexican"],"hours":{"Monday":"17:0-22:0","Tuesday":"17:0-22:0","Wednesday":"17:0-22:0","Thursday":"17:0-22:0","Friday":"17:0-23:0","Saturday":"12:0-23:0","Sunday":"13:0-21:0"}},{"name":"India Samraat","address":"51A Massachusetts Ave","city":"Boston","state":"MA","postal_code":"02115","stars":3.5,"review_count":117,"is_open":0,"attributes":{"RestaurantsAttire":"'casual'","RestaurantsPriceRange2":"2","WiFi":"u'free'","RestaurantsTakeOut":"True","GoodForKids":"True","RestaurantsGoodForGroups":"True","BusinessAcceptsCreditCards":"True","RestaurantsDelivery":"True","Caters":"True","NoiseLevel":"u'average'","HasTV":"True","Alcohol":"u'beer_and_wine'"},"categories":["FoodDeliveryServices","Restaurants","Indian","Food"],"hours":{"Monday":"12:0-22:0","Tuesday":"12:0-22:0","Wednesday":"12:0-22:0","Thursday":"12:0-22:0","Friday":"12:0-22:0","Saturday":"12:0-22:0","Sunday":"15:0-22:0"}},{"name":"Bombay Cafe","address":"175 Massachusetts Ave","city":"Boston","state":"MA","postal_code":"02115","stars":3.0,"review_count":102,"is_open":0,"attributes":{"RestaurantsTakeOut":"True","RestaurantsPriceRange2":"1","BYOBCorkage":"'no'","GoodForKids":"True","Caters":"True","Alcohol":"u'beer_and_wine'","RestaurantsGoodForGroups":"True","RestaurantsAttire":"'casual'","RestaurantsDelivery":"True","RestaurantsReservations":"True","WiFi":"u'no'","NoiseLevel":"u'average'","BusinessAcceptsCreditCards":"True"},"categories":["Indian","Pakistani","Restaurants","Buffets"],"hours":{"Monday":"11:30-23:0","Tuesday":"11:30-23:0","Wednesday":"11:30-23:0","Thursday":"11:30-23:0","Friday":"11:30-23:0","Saturday":"12:0-23:0","Sunday":"12:0-22:0"}},{"name":"Loretta's Last Call","address":"1 Lansdowne St","city":"Boston","state":"MA","postal_code":"02115","stars":3.5,"review_count":245,"is_open":1,"attributes":{"RestaurantsTableService":"True","NoiseLevel":"u'loud'","WiFi":"u'free'","BusinessAcceptsCreditCards":"True","Smoking":"u'no'","RestaurantsReservations":"True","WheelchairAccessible":"True","OutdoorSeating":"True","RestaurantsGoodForGroups":"True","CoatCheck":"True","RestaurantsAttire":"u'casual'","GoodForDancing":"True","RestaurantsTakeOut":"True","RestaurantsPriceRange2":"2","BikeParking":"True","HasTV":"True","Alcohol":"u'full_bar'","RestaurantsDelivery":"True"},"categories":["Southern","MusicVenues","Restaurants","Nightlife","American(Traditional)","Arts&Entertainment","Bars","BeerBar"],"hours":{"Tuesday":"16:0-21:0","Wednesday":"16:0-21:0","Thursday":"16:0-21:0","Friday":"16:0-0:0","Saturday":"10:30-0:0","Sunday":"10:30-21:0"}},{"name":"The Lower Depths","address":"476 Commonwealth Ave","city":"Boston","state":"MA","postal_code":"02115","stars":3.5,"review_count":480,"is_open":0,"attributes":{"RestaurantsGoodForGroups":"True","Alcohol":"'beer_and_wine'","RestaurantsAttire":"'casual'","OutdoorSeating":"True","HasTV":"True","WiFi":"u'no'","RestaurantsPriceRange2":"2","BikeParking":"True","NoiseLevel":"u'loud'","RestaurantsTakeOut":"True","HappyHour":"True","Smoking":"u'no'"},"categories":["Tacos","Bars","Mexican","Restaurants","American(Traditional)","Nightlife","Pubs"],"hours":{"Monday":"16:0-1:0","Tuesday":"16:0-1:0","Wednesday":"16:0-1:0","Thursday":"16:0-1:0","Friday":"11:30-1:0","Saturday":"11:30-1:0","Sunday":"11:30-1:0"}},{"name":"Nan Ling","address":"179 Massachusetts Ave","city":"Boston","state":"MA","postal_code":"02115","stars":1.5,"review_count":107,"is_open":0,"attributes":{"RestaurantsDelivery":"True","RestaurantsTakeOut":"True","BYOBCorkage":"'no'","RestaurantsAttire":"'casual'","RestaurantsPriceRange2":"1","NoiseLevel":"u'average'","WiFi":"u'no'","BusinessAcceptsCreditCards":"True"},"categories":["Chinese","Restaurants"],"hours":{"Monday":"11:0-3:0","Tuesday":"9:0-3:0","Wednesday":"11:0-3:0","Friday":"11:0-3:30","Saturday":"11:0-3:30","Sunday":"12:0-3:0"}},{"name":"Boston Indian Kitchen","address":"51A Massachusetts Ave","city":"Boston","state":"MA","postal_code":"02115","stars":4.0,"review_count":88,"is_open":0,"attributes":{"Alcohol":"'beer_and_wine'","RestaurantsDelivery":"True","RestaurantsTakeOut":"True","GoodForKids":"True","RestaurantsAttire":"'casual'","RestaurantsPriceRange2":"1","RestaurantsGoodForGroups":"True","Caters":"True","BusinessAcceptsCreditCards":"True","NoiseLevel":"'average'","BikeParking":"True","WiFi":"u'free'"},"categories":["Restaurants","FastFood","Indian","Pakistani"],"hours":{"Monday":"11:0-22:0","Tuesday":"11:0-22:0","Wednesday":"11:0-22:0","Thursday":"11:0-22:0","Friday":"11:0-22:0","Saturday":"11:0-22:0","Sunday":"11:0-22:0"}},{"name":"Ali's Roti Restaurant & Takeout","address":"1035 Tremont St","city":"Roxbury Crossing","state":"MA","postal_code":"02120","stars":4.0,"review_count":64,"is_open":1,"attributes":{"BusinessAcceptsCreditCards":"True","RestaurantsTakeOut":"True","RestaurantsPriceRange2":"1","NoiseLevel":"u'quiet'","RestaurantsAttire":"'casual'","GoodForKids":"True","WiFi":"'no'","BikeParking":"True","HasTV":"True"},"categories":["Diners","Restaurants","Caribbean","Indian","Wraps"],"hours":{"Wednesday":"11:0-20:0","Thursday":"11:0-20:0","Friday":"11:0-20:0","Saturday":"11:0-20:0"}},{"name":"Cafeteria Boston","address":"279A Newbury St","city":"Boston","state":"MA","postal_code":"02115","stars":3.5,"review_count":943,"is_open":0,"attributes":{"OutdoorSeating":"True","RestaurantsGoodForGroups":"True","Alcohol":"'full_bar'","RestaurantsReservations":"True","RestaurantsPriceRange2":"2","BusinessAcceptsCreditCards":"True","BYOBCorkage":"'no'","WiFi":"u'no'","BikeParking":"True","NoiseLevel":"u'average'","HasTV":"True","RestaurantsAttire":"'casual'","Smoking":"u'no'","RestaurantsTableService":"True","GoodForKids":"True","WheelchairAccessible":"True"},"categories":["Restaurants","Bars","CocktailBars","Nightlife","American(New)","Breakfast&Brunch"],"hours":{"Monday":"11:0-23:0","Tuesday":"11:0-23:0","Wednesday":"11:0-23:0","Thursday":"11:0-1:0","Friday":"11:0-1:0","Saturday":"9:0-1:0","Sunday":"9:0-23:0"}},{"name":"Sushi Station","address":"1562 Tremont St, Ste 1","city":"Boston","state":"MA","postal_code":"02120","stars":4.0,"review_count":169,"is_open":0,"attributes":{"WiFi":"u'no'","Caters":"True","RestaurantsDelivery":"True","BikeParking":"True","RestaurantsPriceRange2":"2","HasTV":"True","RestaurantsAttire":"u'casual'","BusinessAcceptsCreditCards":"True","RestaurantsTakeOut":"True","GoodForKids":"True","NoiseLevel":"u'quiet'","RestaurantsReservations":"True"},"categories":["EthnicFood","SpecialtyFood","Food","SushiBars","Restaurants","Japanese"],"hours":{"Monday":"11:0-22:0","Tuesday":"11:0-22:0","Wednesday":"11:0-22:0","Thursday":"11:0-22:0","Friday":"11:0-22:30","Sunday":"16:0-21:0"}},{"name":"Two Saints Tavern","address":"52 Gainsborough St","city":"Boston","state":"MA","postal_code":"02115","stars":2.5,"review_count":19,"is_open":1,"attributes":{"RestaurantsDelivery":"True","HasTV":"True","RestaurantsTableService":"True","BusinessAcceptsCreditCards":"True","RestaurantsGoodForGroups":"True"},"categories":["Nightlife","Bars","American(Traditional)","Restaurants"],"hours":{"Monday":"11:30-2:0","Tuesday":"11:30-2:0","Wednesday":"11:30-2:0","Thursday":"11:30-2:0","Friday":"11:30-2:0","Saturday":"11:30-2:0","Sunday":"11:30-2:0"}},{"name":"Trident Booksellers & Caf\u00c3\u00a9","address":"338 Newbury St","city":"Boston","state":"MA","postal_code":"02115","stars":3.5,"review_count":1838,"is_open":1,"attributes":{"RestaurantsGoodForGroups":"True","RestaurantsAttire":"'casual'","BusinessAcceptsCreditCards":"True","RestaurantsPriceRange2":"2","OutdoorSeating":"True","WiFi":"u'free'","GoodForKids":"True","Alcohol":"'beer_and_wine'","BYOBCorkage":"'yes_free'","NoiseLevel":"u'average'","BikeParking":"True","HasTV":"True","RestaurantsDelivery":"True","RestaurantsReservations":"True","RestaurantsTakeOut":"True","RestaurantsTableService":"True","WheelchairAccessible":"True"},"categories":["Food","Breakfast&Brunch","Bookstores","JuiceBars&Smoothies","Restaurants","Books","Mags","Music&Video","Shopping","Sandwiches"],"hours":{"Monday":"8:0-21:0","Tuesday":"8:0-21:0","Wednesday":"8:0-21:0","Thursday":"8:0-21:0","Friday":"8:0-21:0","Saturday":"8:0-21:0","Sunday":"8:0-21:0"}},{"name":"Chef Chang's on Back Bay","address":"30 Massachusetts Ave","city":"Boston","state":"MA","postal_code":"02115","stars":3.5,"review_count":87,"is_open":1,"attributes":{"BusinessAcceptsCreditCards":"True","WiFi":"u'no'","RestaurantsAttire":"u'casual'","RestaurantsReservations":"True","RestaurantsGoodForGroups":"True","GoodForKids":"True","BikeParking":"True","RestaurantsPriceRange2":"2","RestaurantsTakeOut":"True","Caters":"True","Alcohol":"'beer_and_wine'","NoiseLevel":"u'average'","RestaurantsDelivery":"True","RestaurantsTableService":"True","HasTV":"True"},"categories":["Noodles","Szechuan","Chinese","Soup","Restaurants"],"hours":{"Tuesday":"11:0-22:0","Wednesday":"11:0-22:0","Thursday":"11:0-22:0","Friday":"11:0-22:0","Saturday":"11:0-22:0","Sunday":"11:0-22:0"}},{"name":"Panera Bread","address":"888 Commonwealth Ave","city":"Brookline","state":"MA","postal_code":"02115","stars":2.5,"review_count":63,"is_open":0,"attributes":{"GoodForKids":"True","RestaurantsAttire":"u'casual'","Caters":"True","RestaurantsTakeOut":"True","WiFi":"u'free'","OutdoorSeating":"True","RestaurantsPriceRange2":"2","RestaurantsGoodForGroups":"True","BusinessAcceptsCreditCards":"True","NoiseLevel":"u'average'","BikeParking":"True"},"categories":["Restaurants","Bagels","Soup","Bakeries","Sandwiches","Breakfast&Brunch","Salad","Food"],"hours":{"Monday":"6:0-22:0","Tuesday":"6:0-22:0","Wednesday":"6:0-22:0","Thursday":"6:0-22:0","Friday":"6:0-22:0","Saturday":"6:0-22:0","Sunday":"7:0-22:0"}},{"name":"Subway","address":"904 Huntington Ave","city":"Boston","state":"MA","postal_code":"02115","stars":3.0,"review_count":17,"is_open":1,"attributes":{"GoodForKids":"True","WiFi":"u'no'","RestaurantsTakeOut":"True","NoiseLevel":"u'average'","Caters":"True","RestaurantsAttire":"u'casual'","BusinessAcceptsCreditCards":"True","RestaurantsPriceRange2":"1","RestaurantsDelivery":"True","HasTV":"True","RestaurantsGoodForGroups":"True"},"categories":["Restaurants","Food","Sandwiches","FastFood"],"hours":{"Monday":"9:30-22:0","Tuesday":"9:30-22:0","Wednesday":"9:30-22:0","Thursday":"9:30-22:0","Friday":"9:30-22:0","Saturday":"10:15-21:0","Sunday":"10:15-21:0"}},{"name":"Kwik-E Submarine","address":"738 Huntington Ave","city":"Boston","state":"MA","postal_code":"02115","stars":3.0,"review_count":20,"is_open":0,"attributes":{"NoiseLevel":"u'average'","RestaurantsTakeOut":"True","RestaurantsDelivery":"True","GoodForKids":"True","WiFi":"u'free'","RestaurantsGoodForGroups":"True","Caters":"True","RestaurantsPriceRange2":"1","BikeParking":"True","BusinessAcceptsCreditCards":"True","HasTV":"True","RestaurantsAttire":"'casual'"},"categories":["Restaurants","Delis","Pizza","Sandwiches"],"hours":{"Monday":"11:0-22:0","Tuesday":"11:0-22:0","Wednesday":"11:0-22:0","Thursday":"11:0-22:0","Friday":"10:0-23:0","Saturday":"10:0-23:0","Sunday":"10:0-22:0"}},{"name":"Charleys Philly Steaks","address":"350 Longwood Ave","city":"Boston","state":"MA","postal_code":"02115","stars":3.5,"review_count":11,"is_open":1,"attributes":{"GoodForKids":"True","RestaurantsTakeOut":"True","BusinessAcceptsCreditCards":"True","RestaurantsAttire":"'casual'","BikeParking":"True","RestaurantsPriceRange2":"1","HasTV":"True","RestaurantsDelivery":"True"},"categories":["Restaurants","Sandwiches","Cheesesteaks","FastFood"],"hours":{"Monday":"9:0-21:0","Tuesday":"9:0-21:0","Wednesday":"9:0-21:0","Thursday":"9:0-21:0","Friday":"9:0-21:0","Saturday":"7:0-19:0","Sunday":"9:0-20:0"}},{"name":"Taste Cafe and Wine Bar","address":"465 Huntington Ave","city":"Boston","state":"MA","postal_code":"02115","stars":2.0,"review_count":12,"is_open":1,"attributes":{"RestaurantsPriceRange2":"2","WiFi":"'free'","BusinessAcceptsCreditCards":"True","BikeParking":"True","HasTV":"True","RestaurantsAttire":"'casual'"},"categories":["FoodCourt","Cafes","Restaurants"],"hours":{"Monday":"10:0-16:30","Tuesday":"10:0-16:30","Wednesday":"10:0-21:0","Thursday":"10:0-21:0","Friday":"10:0-21:0","Saturday":"10:0-16:30","Sunday":"10:0-16:30"}},{"name":"Tatte Bakery & Cafe","address":"369 Huntington Ave","city":"Boston","state":"MA","postal_code":"02115","stars":4.0,"review_count":53,"is_open":1,"attributes":{"WiFi":"u'free'","RestaurantsPriceRange2":"2","NoiseLevel":"u'average'","BusinessAcceptsCreditCards":"True","RestaurantsDelivery":"True","OutdoorSeating":"True","RestaurantsTakeOut":"True"},"categories":["Cafes","Food","Breakfast&Brunch","Bakeries","Coffee&Tea","Restaurants"],"hours":{"Monday":"7:0-20:0","Tuesday":"7:0-20:0","Wednesday":"7:0-20:0","Thursday":"7:0-20:0","Friday":"7:0-20:0","Saturday":"8:0-20:0","Sunday":"8:0-19:0"}},{"name":"Lucy Ethiopian Cafe","address":"334 Massachusetts Ave","city":"Boston","state":"MA","postal_code":"02115","stars":4.0,"review_count":412,"is_open":1,"attributes":{"WiFi":"u'no'","BusinessAcceptsCreditCards":"True","NoiseLevel":"u'quiet'","GoodForKids":"True","RestaurantsAttire":"u'casual'","WheelchairAccessible":"True","Caters":"True","BikeParking":"True","RestaurantsPriceRange2":"2","RestaurantsGoodForGroups":"True","RestaurantsTableService":"True","RestaurantsTakeOut":"True","RestaurantsDelivery":"True"},"categories":["InternetCafes","Restaurants","Coffee&Tea","Ethiopian","Food"],"hours":{"Tuesday":"11:0-21:0","Wednesday":"11:0-21:30","Thursday":"11:0-21:30","Friday":"11:0-22:0","Saturday":"11:0-22:0","Sunday":"11:0-21:30"}},{"name":"Grub","address":"738 Huntington Ave","city":"Boston","state":"MA","postal_code":"02115","stars":4.5,"review_count":51,"is_open":0,"attributes":{"RestaurantsAttire":"u'casual'","BikeParking":"True","NoiseLevel":"u'quiet'","RestaurantsDelivery":"True","BusinessAcceptsCreditCards":"True","GoodForKids":"True","RestaurantsGoodForGroups":"True","WiFi":"u'no'","HasTV":"True","RestaurantsTakeOut":"True","RestaurantsPriceRange2":"1"},"categories":["ComfortFood","Poutineries","Sandwiches","Restaurants","Breakfast&Brunch"],"hours":{"Tuesday":"11:30-22:0","Wednesday":"11:30-22:0","Thursday":"11:30-22:0","Friday":"11:30-22:0","Saturday":"11:30-22:0","Sunday":"10:0-21:0"}},{"name":"Boloco","address":"283 Longwood Ave","city":"Boston","state":"MA","postal_code":"02115","stars":3.5,"review_count":116,"is_open":1,"attributes":{"RestaurantsPriceRange2":"1","BusinessAcceptsCreditCards":"True","RestaurantsAttire":"'casual'","RestaurantsTakeOut":"True","GoodForKids":"True","BikeParking":"True","Caters":"True","WiFi":"u'free'","OutdoorSeating":"True","Alcohol":"'none'","NoiseLevel":"u'loud'","RestaurantsDelivery":"True"},"categories":["Restaurants","FastFood","Mexican","American(New)"],"hours":{"Monday":"7:0-21:0","Tuesday":"7:0-21:0","Wednesday":"7:0-21:0","Thursday":"7:0-21:0","Friday":"7:0-21:0","Saturday":"7:0-18:0","Sunday":"7:0-18:0"}},{"name":"Red Mango","address":"334 Massachusetts Ave","city":"Boston","state":"MA","postal_code":"02115","stars":3.5,"review_count":171,"is_open":0,"attributes":{"RestaurantsTakeOut":"True","BusinessAcceptsCreditCards":"True","RestaurantsAttire":"u'casual'","RestaurantsGoodForGroups":"True","WiFi":"u'free'","RestaurantsPriceRange2":"1","GoodForKids":"True","BikeParking":"True"},"categories":["IceCream&FrozenYogurt","Restaurants","Food","JuiceBars&Smoothies","Gluten-Free","Kosher"],"hours":{"Monday":"11:0-22:0","Tuesday":"9:0-22:0","Wednesday":"9:0-22:0","Thursday":"9:0-22:0","Friday":"9:0-22:0","Saturday":"9:0-22:0","Sunday":"9:0-22:0"}},{"name":"Beta Burger","address":"1437 Tremont St","city":"Boston","state":"MA","postal_code":"02120","stars":4.0,"review_count":88,"is_open":0,"attributes":{"OutdoorSeating":"True","RestaurantsGoodForGroups":"True","RestaurantsTakeOut":"True","WiFi":"u'free'","Caters":"True","RestaurantsDelivery":"True","BusinessAcceptsCreditCards":"True","WheelchairAccessible":"True","HasTV":"True","RestaurantsPriceRange2":"1","GoodForKids":"True","RestaurantsAttire":"'casual'","NoiseLevel":"u'average'"},"categories":["Restaurants","Burgers","FastFood","American(New)"],"hours":{"Monday":"11:0-21:0","Tuesday":"11:0-21:0","Wednesday":"11:0-21:0","Thursday":"11:0-21:0","Friday":"11:0-21:0","Saturday":"11:0-21:0","Sunday":"11:0-21:0"}},{"name":"Boloco Berklee","address":"1080 Boylston St","city":"Boston","state":"MA","postal_code":"02115","stars":3.5,"review_count":130,"is_open":1,"attributes":{"RestaurantsTakeOut":"True","RestaurantsGoodForGroups":"True","RestaurantsPriceRange2":"1","OutdoorSeating":"True","HasTV":"True","WiFi":"u'free'","BusinessAcceptsCreditCards":"True","BYOBCorkage":"'yes_free'","RestaurantsAttire":"'casual'","GoodForKids":"True","NoiseLevel":"u'average'","BikeParking":"True","Caters":"True","RestaurantsDelivery":"True"},"categories":["Restaurants","Cajun\/Creole","Mexican","EthnicFood","SpecialtyFood","Food","American(New)"],"hours":{"Monday":"11:0-22:0","Tuesday":"11:0-22:0","Wednesday":"11:0-22:0","Thursday":"11:0-22:0","Friday":"11:0-22:0","Saturday":"11:0-22:0","Sunday":"11:0-22:0"}},{"name":"Whole Foods Market","address":"15 Westland Ave","city":"Boston","state":"MA","postal_code":"02115","stars":3.5,"review_count":176,"is_open":1,"attributes":{"BusinessAcceptsCreditCards":"True","RestaurantsDelivery":"True","RestaurantsTakeOut":"True","RestaurantsPriceRange2":"3","BikeParking":"True","Caters":"True","Alcohol":"'none'"},"categories":["OrganicStores","HealthMarkets","Grocery","SeafoodMarkets","MeatShops","Food","SpecialtyFood","JuiceBars&Smoothies","Restaurants"],"hours":{"Tuesday":"7:0-23:0","Wednesday":"7:0-23:0","Thursday":"8:0-21:0","Friday":"9:0-20:0","Saturday":"8:0-20:0","Sunday":"8:0-20:0"}},{"name":"Gyroscope","address":"305 Huntington Ave","city":"Boston","state":"MA","postal_code":"02115","stars":4.5,"review_count":59,"is_open":1,"attributes":{"GoodForKids":"True","RestaurantsTakeOut":"True","RestaurantsDelivery":"True","HasTV":"True","BusinessAcceptsCreditCards":"True"},"categories":["Salad","Mediterranean","Greek","Restaurants"],"hours":{"Monday":"11:0-23:0","Tuesday":"11:0-23:0","Wednesday":"11:0-23:0","Thursday":"11:0-23:0","Friday":"11:0-23:0","Saturday":"11:0-23:0","Sunday":"11:0-23:0"}},{"name":"Crispy Dough Pizzeria","address":"1514 Tremont St","city":"Boston","state":"MA","postal_code":"02120","stars":3.0,"review_count":118,"is_open":1,"attributes":{"RestaurantsReservations":"True","RestaurantsAttire":"u'casual'","WiFi":"u'no'","GoodForKids":"True","BusinessAcceptsCreditCards":"True","RestaurantsPriceRange2":"2","RestaurantsGoodForGroups":"True","RestaurantsTakeOut":"True","HasTV":"True","RestaurantsDelivery":"True","NoiseLevel":"u'average'","BikeParking":"True","Caters":"True"},"categories":["Pizza","Halal","Salad","Restaurants"],"hours":{"Monday":"11:0-23:0","Tuesday":"11:0-23:0","Wednesday":"11:0-23:0","Thursday":"11:0-23:0","Friday":"11:0-23:0","Saturday":"11:0-23:0","Sunday":"11:0-23:0"}},{"name":"Papa\u00e2\u20ac\u2122s Pizza Company","address":"682 Huntington Ave","city":"Boston","state":"MA","postal_code":"02115","stars":3.5,"review_count":23,"is_open":1,"attributes":{"RestaurantsDelivery":"True","WiFi":"u'free'","BusinessAcceptsCreditCards":"True","RestaurantsTakeOut":"True","HasTV":"True","Caters":"True"},"categories":["Pizza","Restaurants"],"hours":{"Monday":"10:30-0:0","Tuesday":"10:30-0:0","Wednesday":"10:30-0:0","Thursday":"10:30-0:0","Friday":"10:30-2:0","Saturday":"10:30-2:0","Sunday":"12:0-22:0"}},{"name":"Longwood Grille & Bar","address":"342 Longwood Ave","city":"Boston","state":"MA","postal_code":"02115","stars":2.5,"review_count":99,"is_open":1,"attributes":{"BYOBCorkage":"'no'","RestaurantsGoodForGroups":"True","RestaurantsReservations":"True","RestaurantsAttire":"'casual'","HasTV":"True","BusinessAcceptsCreditCards":"True","BikeParking":"True","NoiseLevel":"u'average'","RestaurantsTakeOut":"True","RestaurantsPriceRange2":"2","Alcohol":"'full_bar'","GoodForKids":"True","WiFi":"u'free'","HappyHour":"True","Caters":"True","RestaurantsTableService":"True","WheelchairAccessible":"True","RestaurantsDelivery":"True"},"categories":["Restaurants","American(Traditional)"],"hours":{"Monday":"7:0-21:0","Tuesday":"7:0-21:0","Wednesday":"7:0-21:0","Thursday":"7:0-21:0","Friday":"7:0-21:0","Saturday":"16:0-21:0","Sunday":"16:0-21:0"}},{"name":"Krasi","address":"48 Gloucester St","city":"Boston","state":"MA","postal_code":"02115","stars":4.5,"review_count":76,"is_open":1,"attributes":{"Caters":"True","WheelchairAccessible":"True","Alcohol":"u'beer_and_wine'","BusinessAcceptsCreditCards":"True","WiFi":"u'free'","Smoking":"u'no'","RestaurantsDelivery":"True","OutdoorSeating":"True","RestaurantsTableService":"True","BikeParking":"True"},"categories":["Nightlife","Gluten-Free","Restaurants","WineBars","Bars","Tapas\/SmallPlates","Greek","Desserts","Mediterranean","Food"],"hours":{"Monday":"17:0-23:0","Tuesday":"17:0-23:0","Wednesday":"17:0-23:0","Thursday":"17:0-23:0","Friday":"17:0-23:0","Saturday":"17:0-23:0","Sunday":"17:0-23:0"}},{"name":"Quality Mart","address":"21 Massachusetts Ave","city":"Boston","state":"MA","postal_code":"02115","stars":3.5,"review_count":25,"is_open":1,"attributes":{"RestaurantsPriceRange2":"1","RestaurantsTakeOut":"True","BikeParking":"True","BusinessAcceptsCreditCards":"True","WheelchairAccessible":"True","RestaurantsDelivery":"True"},"categories":["Restaurants","Delis","ConvenienceStores","Food","Beer","Wine&Spirits","Grocery"],"hours":{"Monday":"6:0-0:0","Tuesday":"6:0-0:0","Wednesday":"6:0-0:0","Thursday":"6:0-2:0","Friday":"6:0-2:0","Saturday":"6:0-2:0","Sunday":"7:0-0:0"}},{"name":"Rochambeau","address":"900 Boylston St","city":"Boston","state":"MA","postal_code":"02115","stars":4.0,"review_count":123,"is_open":1,"attributes":{"HasTV":"True","Alcohol":"u'full_bar'","OutdoorSeating":"True","RestaurantsReservations":"True","RestaurantsGoodForGroups":"True","RestaurantsTakeOut":"True","RestaurantsDelivery":"True","BusinessAcceptsCreditCards":"True","RestaurantsAttire":"u'casual'","BikeParking":"True","Caters":"True","RestaurantsTableService":"True","WiFi":"u'free'","Smoking":"u'no'","WheelchairAccessible":"True"},"categories":["Nightlife","French","Lounges","CocktailBars","Bars","Restaurants"],"hours":{"Tuesday":"16:0-21:0","Wednesday":"16:0-21:0","Thursday":"16:0-21:0","Friday":"12:0-22:0","Saturday":"11:0-22:0","Sunday":"11:0-21:0"}},{"name":"Wan Convenience Store","address":"1508 Tremont St","city":"Roxbury Crossing","state":"MA","postal_code":"02120","stars":4.5,"review_count":105,"is_open":0,"attributes":{"GoodForKids":"True","RestaurantsPriceRange2":"1","WiFi":"u'no'","NoiseLevel":"u'average'","RestaurantsTakeOut":"True","RestaurantsAttire":"u'casual'"},"categories":["ConvenienceStores","Food","Sandwiches","Restaurants"],"hours":{"Monday":"11:0-20:30","Tuesday":"11:0-20:30","Wednesday":"11:0-20:30","Thursday":"11:0-20:30","Friday":"11:0-20:30","Saturday":"11:0-20:30"}},{"name":"Solstice Cafe","address":"1625 Tremont St","city":"Roxbury Crossing","state":"MA","postal_code":"02120","stars":4.0,"review_count":5,"is_open":0,"attributes":{"RestaurantsAttire":"'casual'","RestaurantsPriceRange2":"2","OutdoorSeating":"True"},"categories":["Nightlife","Arts&Entertainment","Restaurants","MusicVenues"],"hours":{"Monday":"11:0-22:0","Tuesday":"11:0-22:0","Wednesday":"11:0-22:0","Thursday":"11:0-1:0","Friday":"11:0-1:0","Saturday":"11:0-1:0"}},{"name":"Chacho's Pizza & Subs","address":"1502 Tremont St","city":"Roxbury Crossing","state":"MA","postal_code":"02120","stars":4.0,"review_count":43,"is_open":1,"attributes":{"HasTV":"True","BusinessAcceptsCreditCards":"True","BikeParking":"True","Caters":"True","RestaurantsAttire":"u'casual'","RestaurantsTakeOut":"True","GoodForKids":"True","NoiseLevel":"'average'","RestaurantsDelivery":"True","WiFi":"u'no'","RestaurantsPriceRange2":"1"},"categories":["FastFood","Pizza","Restaurants"],"hours":{"Monday":"10:0-21:0","Tuesday":"10:0-21:0","Wednesday":"10:0-21:0","Thursday":"10:0-21:0","Friday":"10:0-21:0","Saturday":"10:0-21:0"}},{"name":"Woody's Grill and Tap","address":"58 Hemenway St","city":"Boston","state":"MA","postal_code":"02115","stars":4.0,"review_count":286,"is_open":1,"attributes":{"RestaurantsGoodForGroups":"True","HasTV":"True","RestaurantsAttire":"'casual'","Alcohol":"u'beer_and_wine'","NoiseLevel":"u'average'","RestaurantsPriceRange2":"2","GoodForKids":"True","RestaurantsTakeOut":"True","BusinessAcceptsCreditCards":"True","WiFi":"'free'","Smoking":"u'no'","BYOBCorkage":"'no'","BikeParking":"True","WheelchairAccessible":"True","RestaurantsTableService":"True","RestaurantsDelivery":"True"},"categories":["Nightlife","American(Traditional)","Pizza","Restaurants","Bars"],"hours":{"Tuesday":"11:30-23:30","Wednesday":"11:30-23:30","Thursday":"11:30-23:30","Friday":"11:30-0:0","Saturday":"11:30-0:0","Sunday":"11:30-22:0"}},{"name":"Marlboro Market","address":"45 Massachusetts Ave","city":"Boston","state":"MA","postal_code":"02115","stars":3.5,"review_count":54,"is_open":1,"attributes":{"BYOBCorkage":"'no'","Alcohol":"'full_bar'","WiFi":"'no'","RestaurantsGoodForGroups":"True","BusinessAcceptsCreditCards":"True","RestaurantsTakeOut":"True","RestaurantsPriceRange2":"1","RestaurantsAttire":"'casual'","NoiseLevel":"'quiet'"},"categories":["Grocery","Delis","Beer","Wine&Spirits","Food","Restaurants"],"hours":{"Monday":"6:0-23:0","Tuesday":"6:0-23:0","Wednesday":"6:0-23:0","Thursday":"6:0-23:0","Friday":"6:0-0:0","Saturday":"7:0-0:0","Sunday":"7:0-23:0"}},{"name":"Chutney's","address":"334 Massachusetts Ave","city":"Boston","state":"MA","postal_code":"02115","stars":3.5,"review_count":89,"is_open":1,"attributes":{"NoiseLevel":"u'average'","GoodForKids":"True","HasTV":"True","Alcohol":"'none'","Caters":"True","BikeParking":"True","WiFi":"u'no'","BusinessAcceptsCreditCards":"True","RestaurantsTakeOut":"True","RestaurantsDelivery":"True","RestaurantsGoodForGroups":"True","RestaurantsPriceRange2":"1","RestaurantsAttire":"'casual'"},"categories":["Restaurants","Indian","Vegetarian","FastFood","Pizza"],"hours":{"Tuesday":"11:0-16:0","Wednesday":"11:0-23:0","Thursday":"11:0-23:0","Friday":"11:0-23:0","Saturday":"11:0-23:0","Sunday":"11:0-23:0"}},{"name":"Pok\u00c3\u00a9 Station and Kitchen","address":"313 Huntington Ave","city":"Boston","state":"MA","postal_code":"02115","stars":3.5,"review_count":30,"is_open":1,"attributes":{"BusinessAcceptsCreditCards":"True","NoiseLevel":"u'average'","GoodForKids":"True","RestaurantsTakeOut":"True","RestaurantsDelivery":"True"},"categories":["Food","Tapas\/SmallPlates","Restaurants","Poke"],"hours":{"Monday":"11:0-22:0","Tuesday":"11:0-22:0","Wednesday":"11:0-22:0","Thursday":"11:0-22:0","Friday":"11:0-22:30","Saturday":"11:0-22:30","Sunday":"12:0-22:0"}},{"name":"Frozen Hoagies Truck","address":"","city":"Boston","state":"MA","postal_code":"02115","stars":4.0,"review_count":42,"is_open":0,"attributes":{"WiFi":"u'no'","RestaurantsTakeOut":"True","RestaurantsGoodForGroups":"True","RestaurantsAttire":"u'casual'","RestaurantsPriceRange2":"1","GoodForKids":"True","BikeParking":"True","BusinessAcceptsCreditCards":"True","Caters":"True","RestaurantsDelivery":"True"},"categories":["Food","FoodTrucks","FastFood","IceCream&FrozenYogurt","Restaurants"],"hours":{"Monday":"12:0-21:0","Tuesday":"12:0-21:0","Wednesday":"12:0-21:0","Thursday":"12:0-21:0","Friday":"12:0-21:0","Saturday":"12:0-21:0","Sunday":"12:0-21:0"}},{"name":"IL Mondo Pizzeria","address":"738 Huntington Ave","city":"Boston","state":"MA","postal_code":"02115","stars":3.0,"review_count":260,"is_open":1,"attributes":{"RestaurantsPriceRange2":"1","RestaurantsDelivery":"True","GoodForKids":"True","BusinessAcceptsCreditCards":"True","RestaurantsTakeOut":"True","NoiseLevel":"u'average'","RestaurantsAttire":"'casual'","BYOBCorkage":"'yes_free'","WiFi":"u'no'","Caters":"True","WheelchairAccessible":"True","HasTV":"True","RestaurantsTableService":"True"},"categories":["Sandwiches","American(New)","Italian","Restaurants","Burgers","Pizza"],"hours":{"Monday":"10:30-1:0","Tuesday":"10:30-1:0","Wednesday":"10:30-1:0","Thursday":"10:30-1:0","Friday":"10:30-2:30","Saturday":"10:30-2:30","Sunday":"10:30-1:0"}},{"name":"The Capital Grille","address":"900 Boylston St","city":"Boston","state":"MA","postal_code":"02115","stars":4.5,"review_count":944,"is_open":1,"attributes":{"RestaurantsAttire":"'dressy'","WiFi":"u'free'","RestaurantsReservations":"True","BusinessAcceptsCreditCards":"True","RestaurantsPriceRange2":"4","BYOBCorkage":"'no'","Corkage":"True","RestaurantsGoodForGroups":"True","Alcohol":"'full_bar'","NoiseLevel":"u'average'","HasTV":"True","BikeParking":"True","RestaurantsTakeOut":"True","CoatCheck":"True","Caters":"True","WheelchairAccessible":"True"},"categories":["Seafood","Steakhouses","Restaurants","American(Traditional)","WineBars","Bars","Nightlife"],"hours":{"Tuesday":"11:30-21:0","Wednesday":"11:30-21:0","Thursday":"11:30-20:0","Friday":"16:0-20:0","Saturday":"17:0-22:0","Sunday":"16:0-21:0"}},{"name":"Conor Larkins Grill & Tap","address":"329 Huntington Ave","city":"Boston","state":"MA","postal_code":"02115","stars":3.5,"review_count":113,"is_open":0,"attributes":{"BusinessAcceptsCreditCards":"True","RestaurantsGoodForGroups":"True","RestaurantsTakeOut":"True","RestaurantsAttire":"'casual'","BYOBCorkage":"'no'","Alcohol":"u'beer_and_wine'","HasTV":"True","WiFi":"u'free'","BikeParking":"True","NoiseLevel":"u'loud'","RestaurantsPriceRange2":"2","RestaurantsDelivery":"True"},"categories":["Nightlife","Irish","Restaurants","American(Traditional)","Bars","Pubs"],"hours":{"Monday":"11:30-1:0","Tuesday":"11:30-1:0","Wednesday":"11:30-1:0","Thursday":"11:30-1:0","Friday":"11:30-1:0","Saturday":"10:0-1:0","Sunday":"10:0-1:0"}},{"name":"RED WHITE BUDDHA RAMEN ","address":"294 Newbury St","city":"Boston","state":"MA","postal_code":"02115","stars":4.5,"review_count":167,"is_open":1,"attributes":{"RestaurantsPriceRange2":"2","WheelchairAccessible":"True","WiFi":"u'no'","GoodForKids":"True","BusinessAcceptsCreditCards":"True","Caters":"True","RestaurantsTakeOut":"True","OutdoorSeating":"True","BikeParking":"True","RestaurantsDelivery":"True"},"categories":["Food","AsianFusion","Restaurants","Vegan","JuiceBars&Smoothies","Ramen","Japanese","HealthMarkets","SpecialtyFood","SushiBars","Vegetarian","Soup","Noodles"],"hours":{"Tuesday":"12:0-20:0","Wednesday":"12:0-20:0","Thursday":"12:0-20:0","Friday":"12:0-20:0","Saturday":"11:0-20:0","Sunday":"11:0-20:0"}},{"name":"Espresso Royale Caffe","address":"286 Newbury St","city":"Boston","state":"MA","postal_code":"02115","stars":4.0,"review_count":198,"is_open":0,"attributes":{"WiFi":"'free'","BusinessAcceptsCreditCards":"True","RestaurantsPriceRange2":"1","OutdoorSeating":"True"},"categories":["Desserts","Bagels","Coffee&Tea","Restaurants","Food"],"hours":{"Monday":"8:0-21:0","Tuesday":"8:0-21:0","Wednesday":"8:0-21:0","Thursday":"8:0-21:0","Friday":"8:0-21:0","Saturday":"8:0-20:0","Sunday":"8:0-20:0"}},{"name":"Subway","address":"1122 Boylston St","city":"Boston","state":"MA","postal_code":"02115","stars":2.0,"review_count":15,"is_open":0,"attributes":{"RestaurantsGoodForGroups":"True","RestaurantsTakeOut":"True","Caters":"True","RestaurantsPriceRange2":"1","NoiseLevel":"u'average'","RestaurantsAttire":"u'casual'","OutdoorSeating":"True","BusinessAcceptsCreditCards":"True","GoodForKids":"True","HasTV":"True"},"categories":["Restaurants","Sandwiches","FastFood"],"hours":{"Monday":"9:0-23:0","Tuesday":"9:0-23:0","Wednesday":"9:0-23:0","Thursday":"9:0-23:0","Friday":"9:0-23:0","Saturday":"9:0-23:0","Sunday":"9:0-22:0"}},{"name":"Mike's Donuts","address":"1524 Tremont St","city":"Roxbury Crossing","state":"MA","postal_code":"02120","stars":4.0,"review_count":78,"is_open":1,"attributes":{"BikeParking":"True","BusinessAcceptsCreditCards":"True","RestaurantsTakeOut":"True","RestaurantsPriceRange2":"1","OutdoorSeating":"True","WiFi":"u'free'"},"categories":["Donuts","Food","Restaurants","Coffee&Tea"],"hours":{"Monday":"4:30-16:0","Tuesday":"4:30-16:0","Wednesday":"4:30-16:0","Thursday":"4:30-16:0","Friday":"4:30-16:0","Saturday":"4:30-16:0","Sunday":"4:30-16:0"}},{"name":"Slade's Bar & Grill","address":"958 Tremont St","city":"Roxbury Crossing","state":"MA","postal_code":"02120","stars":3.5,"review_count":156,"is_open":1,"attributes":{"NoiseLevel":"u'loud'","RestaurantsTakeOut":"True","BikeParking":"True","RestaurantsGoodForGroups":"True","RestaurantsReservations":"True","WiFi":"u'no'","Caters":"True","RestaurantsAttire":"u'casual'","HasTV":"True","RestaurantsTableService":"True","Alcohol":"u'full_bar'","GoodForDancing":"True","RestaurantsPriceRange2":"2","BusinessAcceptsCreditCards":"True","Smoking":"u'no'","RestaurantsDelivery":"True"},"categories":["MusicVenues","Bars","Restaurants","American(Traditional)","SoulFood","Nightlife","Arts&Entertainment"],"hours":{"Tuesday":"11:30-2:0","Wednesday":"11:30-2:0","Thursday":"11:30-2:0","Friday":"11:30-2:0","Saturday":"11:30-2:0","Sunday":"11:30-21:0"}},{"name":"Sami's","address":"107 Ave Louis Pasteur","city":"Boston","state":"MA","postal_code":"02115","stars":4.0,"review_count":63,"is_open":0,"attributes":{"GoodForKids":"True","BusinessAcceptsCreditCards":"True","RestaurantsAttire":"u'casual'","RestaurantsTakeOut":"True","BikeParking":"True","RestaurantsGoodForGroups":"True","Caters":"True","RestaurantsPriceRange2":"1","WiFi":"u'no'","NoiseLevel":"u'average'"},"categories":["FoodStands","Food","Lebanese","StreetVendors","MiddleEastern","Restaurants","American(New)","FoodTrucks"],"hours":{"Monday":"6:0-14:30","Tuesday":"6:0-14:30","Wednesday":"6:0-14:30","Thursday":"6:0-14:30","Friday":"6:0-14:30"}},{"name":"Symphony Sushi","address":"45 Gainsborough St","city":"Boston","state":"MA","postal_code":"02115","stars":3.5,"review_count":359,"is_open":1,"attributes":{"RestaurantsPriceRange2":"2","BusinessAcceptsCreditCards":"True","Alcohol":"u'beer_and_wine'","RestaurantsAttire":"'casual'","RestaurantsDelivery":"True","RestaurantsReservations":"True","NoiseLevel":"u'average'","RestaurantsGoodForGroups":"True","RestaurantsTakeOut":"True","WiFi":"u'no'","HasTV":"True","BYOBCorkage":"'yes_free'","Caters":"True","HappyHour":"True","WheelchairAccessible":"True","GoodForKids":"True","RestaurantsTableService":"True"},"categories":["SushiBars","Restaurants","Japanese"],"hours":{"Monday":"11:30-22:0","Tuesday":"11:30-22:0","Wednesday":"11:30-22:0","Thursday":"11:30-22:0","Friday":"11:30-22:0","Saturday":"11:30-22:0","Sunday":"12:0-22:0"}},{"name":"The Savant Project","address":"1625 Tremont St","city":"Boston","state":"MA","postal_code":"02120","stars":3.0,"review_count":191,"is_open":0,"attributes":{"RestaurantsTakeOut":"True","OutdoorSeating":"True","BYOBCorkage":"'yes_free'","BusinessAcceptsCreditCards":"True","RestaurantsGoodForGroups":"True","RestaurantsPriceRange2":"2","RestaurantsAttire":"'casual'","HappyHour":"True","Alcohol":"'full_bar'","RestaurantsReservations":"True"},"categories":["Arts&Entertainment","Restaurants","American(New)","MusicVenues","TapasBars","Nightlife"],"hours":{"Monday":"11:30-23:0","Tuesday":"11:30-23:0","Wednesday":"11:30-23:0","Thursday":"11:30-1:0","Friday":"11:30-1:0","Saturday":"11:30-1:0","Sunday":"11:30-23:0"}},{"name":"Flames Restaurant II","address":"746 Huntington Ave","city":"Boston","state":"MA","postal_code":"02115","stars":3.5,"review_count":194,"is_open":1,"attributes":{"Alcohol":"u'beer_and_wine'","HasTV":"True","RestaurantsPriceRange2":"2","RestaurantsAttire":"'casual'","RestaurantsTakeOut":"True","Caters":"True","BikeParking":"True","BYOBCorkage":"'no'","NoiseLevel":"u'average'","GoodForKids":"True","RestaurantsGoodForGroups":"True","BusinessAcceptsCreditCards":"True","RestaurantsTableService":"True","WiFi":"u'no'"},"categories":["Caribbean","Restaurants"],"hours":{"Monday":"11:0-23:0","Tuesday":"11:0-23:0","Wednesday":"11:0-23:0","Thursday":"11:0-23:0","Friday":"11:0-0:0","Saturday":"11:0-0:0","Sunday":"11:0-23:0"}},{"name":"Pad Thai Cafe","address":"1116 Boylston St","city":"Boston","state":"MA","postal_code":"02115","stars":4.0,"review_count":341,"is_open":0,"attributes":{"RestaurantsPriceRange2":"1","RestaurantsDelivery":"True","RestaurantsAttire":"'casual'","GoodForKids":"True","RestaurantsTakeOut":"True","BusinessAcceptsCreditCards":"True","WiFi":"u'no'","BYOBCorkage":"'no'","RestaurantsGoodForGroups":"True","BikeParking":"True","OutdoorSeating":"True","Alcohol":"'beer_and_wine'","NoiseLevel":"u'average'"},"categories":["Restaurants","Thai"],"hours":{"Monday":"11:30-22:30","Tuesday":"11:30-22:30","Wednesday":"11:30-22:30","Thursday":"11:30-23:0","Friday":"11:30-23:0","Saturday":"12:0-23:0","Sunday":"12:0-22:30"}},{"name":"Steve's Greek Restaurant","address":"316 Newbury St","city":"Boston","state":"MA","postal_code":"02115","stars":3.0,"review_count":206,"is_open":0,"attributes":{"RestaurantsTakeOut":"True","BusinessAcceptsCreditCards":"True","RestaurantsPriceRange2":"2","RestaurantsAttire":"'casual'","WiFi":"u'no'","BYOBCorkage":"'no'","NoiseLevel":"u'average'","GoodForKids":"True","RestaurantsDelivery":"True","RestaurantsGoodForGroups":"True","Alcohol":"'beer_and_wine'","RestaurantsTableService":"True"},"categories":["Restaurants","Mediterranean","Greek"],"hours":{"Monday":"7:30-23:0","Tuesday":"7:30-23:0","Wednesday":"7:30-23:0","Thursday":"7:30-23:0","Friday":"7:30-23:0","Saturday":"7:30-23:0","Sunday":"10:0-22:0"}},{"name":"The Crossing","address":"1592 Tremont St","city":"Boston","state":"MA","postal_code":"02120","stars":3.5,"review_count":38,"is_open":0,"attributes":{"RestaurantsGoodForGroups":"True","Alcohol":"u'full_bar'","BusinessAcceptsCreditCards":"True","RestaurantsAttire":"u'casual'","NoiseLevel":"u'average'","RestaurantsPriceRange2":"2","HasTV":"True","RestaurantsTakeOut":"True","WiFi":"u'free'","BikeParking":"True"},"categories":["American(Traditional)","Bars","Nightlife","Karaoke","Restaurants","SportsBars"],"hours":{"Monday":"11:30-1:0","Tuesday":"11:30-1:0","Wednesday":"11:30-1:0","Thursday":"11:30-1:0","Friday":"11:30-1:0","Saturday":"10:0-1:0","Sunday":"10:0-1:0"}},{"name":"Citra Fresh Cafe","address":"221 Longwood Ave","city":"Boston","state":"MA","postal_code":"02115","stars":4.0,"review_count":5,"is_open":1,"attributes":{"RestaurantsPriceRange2":"1","RestaurantsAttire":"'casual'","RestaurantsTakeOut":"True","HasTV":"True","RestaurantsDelivery":"True","BusinessAcceptsCreditCards":"True"},"categories":["Breakfast&Brunch","Restaurants"],"hours":{"Monday":"7:0-17:0","Tuesday":"7:0-17:0","Wednesday":"7:0-17:0","Thursday":"7:0-17:0","Friday":"7:0-17:0"}},{"name":"Penguin Pizza","address":"735 Huntington Ave","city":"Boston","state":"MA","postal_code":"02115","stars":3.5,"review_count":539,"is_open":1,"attributes":{"RestaurantsDelivery":"True","RestaurantsAttire":"'casual'","BusinessAcceptsCreditCards":"True","RestaurantsGoodForGroups":"True","WiFi":"u'no'","RestaurantsReservations":"True","RestaurantsTakeOut":"True","BYOBCorkage":"'no'","NoiseLevel":"u'average'","BikeParking":"True","HasTV":"True","RestaurantsPriceRange2":"2","HappyHour":"True","RestaurantsTableService":"True","Alcohol":"u'full_bar'","Smoking":"u'no'"},"categories":["Nightlife","Italian","Restaurants","Bars","SportsBars","DiveBars","Pizza"],"hours":{"Monday":"12:0-22:0","Tuesday":"12:0-22:0","Wednesday":"12:0-22:0","Thursday":"12:0-22:0","Friday":"12:0-22:0","Saturday":"12:0-22:0","Sunday":"12:0-22:0"}},{"name":"UBurger","address":"346 Huntington Ave","city":"Boston","state":"MA","postal_code":"02115","stars":2.5,"review_count":17,"is_open":1,"attributes":{"GoodForKids":"True","RestaurantsAttire":"u'casual'","RestaurantsGoodForGroups":"True","RestaurantsPriceRange2":"1","WiFi":"'no'","BusinessAcceptsCreditCards":"True","HasTV":"True","NoiseLevel":"'average'","OutdoorSeating":"True","RestaurantsTakeOut":"True","BikeParking":"True"},"categories":["Food","Burgers","Restaurants"],"hours":{"Monday":"11:0-21:0","Tuesday":"11:0-21:0","Wednesday":"11:0-21:0","Thursday":"11:0-21:0","Friday":"11:0-20:0"}},{"name":"Ginger Exchange","address":"1625 Tremont St","city":"Roxbury Crossing","state":"MA","postal_code":"02120","stars":4.0,"review_count":18,"is_open":1,"attributes":{"Caters":"True","RestaurantsTableService":"True","RestaurantsDelivery":"True","RestaurantsTakeOut":"True"},"categories":["Restaurants","AsianFusion"],"hours":{"Monday":"11:30-22:30","Tuesday":"11:30-22:30","Wednesday":"11:30-22:30","Thursday":"11:30-22:30","Friday":"11:30-22:30","Saturday":"12:0-22:30","Sunday":"12:0-23:0"}},{"name":"Dana Farber Cancer Institute Cafeteria","address":"44 Binney St","city":"Boston","state":"MA","postal_code":"02115","stars":4.5,"review_count":12,"is_open":1,"attributes":{"RestaurantsAttire":"u'casual'","GoodForKids":"True","BusinessAcceptsCreditCards":"True","RestaurantsGoodForGroups":"True","RestaurantsPriceRange2":"1","WiFi":"'free'","HasTV":"True","BikeParking":"True","RestaurantsDelivery":"True","RestaurantsTakeOut":"True"},"categories":["Cafeteria","American(Traditional)","Restaurants"],"hours":{"Monday":"6:30-16:0","Tuesday":"6:30-16:0","Wednesday":"6:30-16:0","Thursday":"6:30-16:0","Friday":"6:30-16:0"}},{"name":"Tavern of Tales","address":"1478 Tremont St","city":"Boston","state":"MA","postal_code":"02120","stars":5.0,"review_count":12,"is_open":1,"attributes":{"WheelchairAccessible":"True","RestaurantsPriceRange2":"2","Alcohol":"u'beer_and_wine'","Smoking":"u'no'","BikeParking":"True","WiFi":"u'free'","BusinessAcceptsCreditCards":"True","RestaurantsTableService":"True","RestaurantsReservations":"True","OutdoorSeating":"True"},"categories":["TabletopGames","Restaurants","Shopping","ThemedCafes","Cafes","Bars","SocialClubs","Nightlife","Arts&Entertainment","BeerBar"],"hours":{"Tuesday":"17:0-21:30","Wednesday":"17:0-21:30","Thursday":"17:0-21:30","Friday":"17:0-21:30","Saturday":"17:0-21:30","Sunday":"17:0-21:30"}},{"name":"Pan Thai Restaurant","address":"14A Westland Ave","city":"Boston","state":"MA","postal_code":"02115","stars":3.5,"review_count":53,"is_open":0,"attributes":{"RestaurantsDelivery":"True","RestaurantsAttire":"'casual'","RestaurantsGoodForGroups":"True","GoodForKids":"True","RestaurantsTakeOut":"True","BusinessAcceptsCreditCards":"True","WiFi":"u'no'","Alcohol":"'beer_and_wine'","NoiseLevel":"u'quiet'","RestaurantsPriceRange2":"1"},"categories":["Thai","Restaurants"],"hours":{"Monday":"11:30-22:0","Tuesday":"11:30-22:0","Wednesday":"11:30-22:0","Thursday":"11:30-22:0","Friday":"11:30-22:30","Saturday":"11:30-22:30","Sunday":"12:0-22:0"}},{"name":"Chicken Lou's","address":"50 Forsyth St","city":"Boston","state":"MA","postal_code":"02115","stars":4.0,"review_count":116,"is_open":0,"attributes":{"RestaurantsTakeOut":"True","RestaurantsAttire":"'casual'","BusinessAcceptsCreditCards":"True","OutdoorSeating":"True","WiFi":"u'no'","GoodForKids":"True","RestaurantsPriceRange2":"1","BYOBCorkage":"'no'","Alcohol":"'none'","Caters":"True","NoiseLevel":"u'average'","BikeParking":"True"},"categories":["Restaurants","FastFood","Sandwiches"],"hours":{"Monday":"6:45-20:30","Tuesday":"6:45-20:30","Wednesday":"6:45-20:30","Thursday":"6:45-20:30","Friday":"6:45-18:45","Saturday":"7:30-14:0"}},{"name":"Garden Cafeteria","address":"465 Huntington Ave","city":"Boston","state":"MA","postal_code":"02115","stars":3.0,"review_count":8,"is_open":1,"attributes":{"RestaurantsPriceRange2":"1","BusinessAcceptsCreditCards":"True","RestaurantsGoodForGroups":"True","WiFi":"'free'","GoodForKids":"True","RestaurantsAttire":"'casual'","Alcohol":"'beer_and_wine'","HasTV":"True"},"categories":["Food","American(Traditional)","Restaurants"],"hours":{"Monday":"10:0-16:0","Tuesday":"10:0-16:0","Wednesday":"10:0-16:0","Thursday":"10:0-16:0","Friday":"10:0-16:0","Saturday":"10:0-16:0","Sunday":"10:0-16:0"}},{"name":"B3","address":"160 Massachusetts Ave","city":"Boston","state":"MA","postal_code":"02115","stars":4.0,"review_count":101,"is_open":0,"attributes":{"RestaurantsPriceRange2":"3","RestaurantsGoodForGroups":"True","WheelchairAccessible":"True","BusinessAcceptsCreditCards":"True","Smoking":"u'no'","BikeParking":"True","Alcohol":"u'full_bar'","RestaurantsTakeOut":"True","HasTV":"True","RestaurantsTableService":"True","NoiseLevel":"u'average'","CoatCheck":"True","RestaurantsAttire":"u'casual'","WiFi":"u'free'","RestaurantsReservations":"True"},"categories":["Nightlife","Bars","Southern","American(Traditional)","Restaurants","CocktailBars","ComfortFood"],"hours":{"Tuesday":"17:0-22:0","Wednesday":"17:0-22:0","Thursday":"17:0-22:0","Friday":"17:0-22:30","Saturday":"17:0-22:30","Sunday":"17:0-20:0"}},{"name":"Chutney's","address":"350 Longwood Ave","city":"Boston","state":"MA","postal_code":"02115","stars":3.5,"review_count":38,"is_open":1,"attributes":{"RestaurantsPriceRange2":"1","BusinessAcceptsCreditCards":"True","NoiseLevel":"'average'","WiFi":"u'no'","GoodForKids":"True","RestaurantsTakeOut":"True","RestaurantsAttire":"u'casual'","HasTV":"True","RestaurantsDelivery":"True","BikeParking":"True"},"categories":["Indian","FastFood","Restaurants"],"hours":{"Tuesday":"11:0-16:0","Wednesday":"11:0-21:0","Thursday":"11:0-21:0","Friday":"11:0-21:0","Saturday":"11:0-20:0","Sunday":"11:0-20:0"}},{"name":"Hsin Hsin","address":"25 Massachusetts Ave","city":"Boston","state":"MA","postal_code":"02115","stars":3.5,"review_count":126,"is_open":1,"attributes":{"RestaurantsDelivery":"True","RestaurantsGoodForGroups":"True","RestaurantsPriceRange2":"1","Alcohol":"'none'","HasTV":"True","BYOBCorkage":"'no'","RestaurantsTakeOut":"True","WiFi":"u'no'","GoodForKids":"True","BusinessAcceptsCreditCards":"True","BikeParking":"True","NoiseLevel":"u'quiet'","RestaurantsAttire":"'casual'"},"categories":["Restaurants","AsianFusion","Chinese","EthnicFood","Food","SpecialtyFood","Cantonese","Japanese","Szechuan"],"hours":{"Monday":"12:0-23:0","Wednesday":"12:0-23:0","Thursday":"12:0-23:0","Friday":"12:0-23:0","Saturday":"12:0-23:0","Sunday":"12:0-23:0"}},{"name":"City Kitchen","address":"6 Hemenway St","city":"Boston","state":"MA","postal_code":"02115","stars":3.5,"review_count":5,"is_open":0,"attributes":{"GoodForKids":"True","RestaurantsDelivery":"True","BusinessAcceptsCreditCards":"True","RestaurantsPriceRange2":"1","Alcohol":"'none'","RestaurantsTakeOut":"True","RestaurantsGoodForGroups":"True","RestaurantsAttire":"'casual'"},"categories":["Restaurants","American(New)"],"hours":{"Monday":"11:0-22:0","Tuesday":"11:0-22:0","Wednesday":"11:0-22:0","Thursday":"11:0-22:0","Friday":"11:0-22:0","Saturday":"12:0-22:0"}},{"name":"Caff\u00c3\u00a9bene","address":"333 Massachusetts Ave","city":"Boston","state":"MA","postal_code":"02115","stars":4.0,"review_count":245,"is_open":1,"attributes":{"Alcohol":"'none'","NoiseLevel":"'average'","BusinessAcceptsCreditCards":"True","RestaurantsGoodForGroups":"True","RestaurantsPriceRange2":"1","RestaurantsAttire":"'casual'","WiFi":"'free'","GoodForKids":"True","RestaurantsTakeOut":"True","RestaurantsDelivery":"True","WheelchairAccessible":"True"},"categories":["Restaurants","Coffee&Tea","Desserts","Breakfast&Brunch","Gelato","Cafes","Food"],"hours":{"Monday":"8:0-21:30","Tuesday":"8:0-21:30","Wednesday":"8:0-21:30","Thursday":"10:0-19:0","Friday":"10:0-19:0","Saturday":"8:0-21:30","Sunday":"9:0-21:30"}},{"name":"Kigo Kitchen","address":"360 Huntington Ave","city":"Boston","state":"MA","postal_code":"02115","stars":3.0,"review_count":10,"is_open":1,"attributes":{"RestaurantsDelivery":"True","RestaurantsGoodForGroups":"True","RestaurantsAttire":"u'casual'","WiFi":"u'free'","RestaurantsPriceRange2":"1","Caters":"True","BusinessAcceptsCreditCards":"True","BikeParking":"True","RestaurantsTakeOut":"True","NoiseLevel":"u'very_loud'"},"categories":["Restaurants","FastFood","AsianFusion","Thai","Japanese"],"hours":{"Monday":"11:0-19:0","Tuesday":"11:0-19:0","Wednesday":"11:0-19:0","Thursday":"11:0-19:0","Friday":"11:0-17:0"}},{"name":"B.GOOD","address":"359 Huntington Ave","city":"Boston","state":"MA","postal_code":"02115","stars":3.0,"review_count":56,"is_open":1,"attributes":{"RestaurantsPriceRange2":"1","RestaurantsAttire":"'casual'","RestaurantsGoodForGroups":"True","GoodForKids":"True","BusinessAcceptsCreditCards":"True","BikeParking":"True","Caters":"True","WiFi":"u'free'","RestaurantsDelivery":"True","NoiseLevel":"u'average'","RestaurantsTakeOut":"True"},"categories":["JuiceBars&Smoothies","Restaurants","FastFood","Sandwiches","American(Traditional)","Salad","Food","Burgers","Breakfast&Brunch","American(New)"],"hours":{"Tuesday":"7:0-20:0","Wednesday":"10:30-21:0","Thursday":"11:0-16:0","Friday":"12:0-19:30"}},{"name":"Chatime","address":"333 Huntington Ave","city":"Boston","state":"MA","postal_code":"02115","stars":2.5,"review_count":74,"is_open":1,"attributes":{"BusinessAcceptsCreditCards":"True","RestaurantsTakeOut":"True","BikeParking":"True","RestaurantsPriceRange2":"1","WiFi":"u'free'","OutdoorSeating":"True","RestaurantsDelivery":"True"},"categories":["Food","BubbleTea","Restaurants","Coffee&Tea","Taiwanese","JuiceBars&Smoothies"],"hours":{"Monday":"11:0-17:0","Tuesday":"11:0-17:0","Wednesday":"11:0-17:0","Thursday":"11:0-17:0","Friday":"11:0-17:0","Saturday":"11:0-17:0","Sunday":"11:0-17:0"}},{"name":"TGI Fridays","address":"1626 Tremont St","city":"Boston","state":"MA","postal_code":"02120","stars":2.0,"review_count":228,"is_open":1,"attributes":{"RestaurantsTakeOut":"True","RestaurantsPriceRange2":"2","WiFi":"'free'","BYOBCorkage":"'no'","OutdoorSeating":"True","BusinessAcceptsCreditCards":"True","RestaurantsGoodForGroups":"True","GoodForKids":"True","NoiseLevel":"u'loud'","HasTV":"True","RestaurantsReservations":"True","RestaurantsTableService":"True","Alcohol":"'full_bar'","BikeParking":"True","RestaurantsAttire":"'casual'","RestaurantsDelivery":"True"},"categories":["American(New)","Nightlife","Restaurants","Bars","American(Traditional)"],"hours":{"Monday":"11:0-0:30","Tuesday":"11:0-0:30","Wednesday":"11:0-0:30","Thursday":"10:30-0:30","Friday":"10:30-0:30","Saturday":"11:0-0:30","Sunday":"11:0-0:30"}}]